IPRange,CountryCode,CountryName,Region,City,Latitude,Longitude,AddressFamily,NumAddresses,GeofeedCountry,GeofeedRegion,GeofeedCity,GeoSource
136.23.48.0/25,US,United States,New York,New York,40.7126,-74.0066,IPv4,128,US,US-NY,New York City,MaxMind GeoLite2
136.23.48.128/30,CA,Canada,Nova Scotia,Halifax,44.6437,-63.5728,IPv4,4,CA,CA-NS,Halifax,MaxMind GeoLite2
136.23.48.132/30,US,United States,New York,Syracuse,43.0483,-76.1468,IPv4,4,US,US-NY,Syracuse,MaxMind GeoLite2
136.23.48.136/30,CA,Canada,New Brunswick,Moncton,46.096,-64.7998,IPv4,4,CA,CA-NB,Moncton,MaxMind GeoLite2
136.23.48.140/30,CA,Canada,Nova Scotia,Lower Sackville,44.771,-63.6846,IPv4,4,CA,CA-NS,Lower Sackville,MaxMind GeoLite2
136.23.48.144/30,US,United States,New Hampshire,Manchester,42.9948,-71.458,IPv4,4,US,US-NH,Manchester,MaxMind GeoLite2
136.23.48.148/30,US,United States,New York,Buffalo,42.8864,-78.8784,IPv4,4,US,US-NY,Buffalo,MaxMind GeoLite2
136.23.48.152/30,US,United States,Virginia,Ashburn,39.0469,-77.4903,IPv4,4,US,US-VA,Ashburn,MaxMind GeoLite2
136.23.48.156/30,US,United States,Virginia,Reston,38.9653,-77.338,IPv4,4,US,US-VA,Reston,MaxMind GeoLite2
136.23.48.160/31,CA,Canada,Ontario,Kingston,44.2289,-76.476,IPv4,2,CA,CA-ON,Kingston,MaxMind GeoLite2
136.23.48.162/31,US,United States,Connecticut,New Haven,41.3079,-72.9268,IPv4,2,US,US-CT,New Haven,MaxMind GeoLite2
136.23.48.164/31,US,United States,Massachusetts,Cambridge,42.3797,-71.1034,IPv4,2,US,US-MA,Cambridge,MaxMind GeoLite2
136.23.48.166/31,US,United States,Massachusetts,Springfield,42.0986,-72.5931,IPv4,2,US,US-MA,Springfield,MaxMind GeoLite2
136.23.48.168/31,US,United States,Maryland,Gaithersburg,39.1406,-77.1979,IPv4,2,US,US-MD,Gaithersburg,MaxMind GeoLite2
136.23.48.170/31,US,United States,Maine,Portland,43.6598,-70.2547,IPv4,2,US,US-ME,Portland,MaxMind GeoLite2
136.23.48.172/31,US,United States,New Jersey,Jersey City,40.7308,-74.0789,IPv4,2,US,US-NJ,Jersey City,MaxMind GeoLite2
136.23.48.174/31,US,United States,New Jersey,Newark,40.7399,-74.1691,IPv4,2,US,US-NJ,Newark,MaxMind GeoLite2
136.23.48.176/31,US,United States,New York,Albany,42.6517,-73.7559,IPv4,2,US,US-NY,Albany,MaxMind GeoLite2
136.23.48.178/31,US,United States,New York,Troy,42.7298,-73.6959,IPv4,2,US,US-NY,Troy,MaxMind GeoLite2
136.23.48.180/31,US,United States,Rhode Island,Providence,41.8268,-71.4142,IPv4,2,US,US-RI,Providence,MaxMind GeoLite2
136.23.48.182/31,US,United States,Virginia,Arlington,38.884,-77.1054,IPv4,2,US,US-VA,Arlington,MaxMind GeoLite2
136.23.48.184/31,US,United States,Virginia,Burke,38.7921,-77.2803,IPv4,2,US,US-VA,Burke,MaxMind GeoLite2
136.23.48.186/31,US,United States,Vermont,Burlington,44.4829,-73.2253,IPv4,2,US,US-VT,Burlington,MaxMind GeoLite2
136.23.48.188/32,CA,Canada,Newfoundland and Labrador,St. John's,47.5629,-52.7041,IPv4,1,CA,CA-NL,St. John's,MaxMind GeoLite2
136.23.48.189/32,US,United States,Connecticut,Bloomfield,41.8304,-72.7199,IPv4,1,US,US-CT,Bloomfield,MaxMind GeoLite2
136.23.48.190/32,US,United States,Connecticut,Danbury,41.3973,-73.4527,IPv4,1,US,US-CT,Danbury,MaxMind GeoLite2
136.23.48.191/32,US,United States,Connecticut,Manchester,41.776,-72.5283,IPv4,1,US,US-CT,Manchester,MaxMind GeoLite2
136.23.48.192/32,US,United States,Connecticut,New Britain,41.668,-72.7802,IPv4,1,US,US-CT,New Britain,MaxMind GeoLite2
136.23.48.193/32,US,United States,Connecticut,Norwich,41.5312,-72.0875,IPv4,1,US,US-CT,Norwich,MaxMind GeoLite2
136.23.48.194/32,US,United States,Connecticut,Waterbury,41.5577,-73.0547,IPv4,1,US,US-CT,Waterbury,MaxMind GeoLite2
136.23.48.195/32,US,United States,Delaware,Dover,39.1599,-75.5196,IPv4,1,US,US-DE,Dover,MaxMind GeoLite2
136.23.48.196/32,US,United States,Delaware,Wilmington,39.7503,-75.5453,IPv4,1,US,US-DE,Wilmington,MaxMind GeoLite2
136.23.48.197/32,US,United States,Massachusetts,Auburn,42.2045,-71.8338,IPv4,1,US,US-MA,Auburn,MaxMind GeoLite2
136.23.48.198/32,US,United States,Massachusetts,Framingham,42.2832,-71.4296,IPv4,1,US,US-MA,Framingham,MaxMind GeoLite2
136.23.48.199/32,US,United States,Massachusetts,Franklin,42.0834,-71.3967,IPv4,1,US,US-MA,Franklin,MaxMind GeoLite2
136.23.48.200/32,US,United States,Massachusetts,Lawrence,42.7054,-71.1628,IPv4,1,US,US-MA,Lawrence,MaxMind GeoLite2
136.23.48.201/32,US,United States,Massachusetts,Leominster,42.5301,-71.7553,IPv4,1,US,US-MA,Leominster,MaxMind GeoLite2
136.23.48.202/32,US,United States,Massachusetts,Lowell,42.6313,-71.3151,IPv4,1,US,US-MA,Lowell,MaxMind GeoLite2
136.23.48.203/32,US,United States,Massachusetts,Lynn,42.4684,-70.9468,IPv4,1,US,US-MA,Lynn,MaxMind GeoLite2
136.23.48.204/32,US,United States,Massachusetts,Medford,42.415,-71.1061,IPv4,1,US,US-MA,Medford,MaxMind GeoLite2
136.23.48.205/32,US,United States,Massachusetts,New Bedford,41.6332,-70.9167,IPv4,1,US,US-MA,New Bedford,MaxMind GeoLite2
136.23.48.206/32,US,United States,Massachusetts,Quincy,42.2573,-70.9985,IPv4,1,US,US-MA,Quincy,MaxMind GeoLite2
136.23.48.207/32,US,United States,Massachusetts,Westford,42.5811,-71.4387,IPv4,1,US,US-MA,Westford,MaxMind GeoLite2
136.23.48.208/32,US,United States,Massachusetts,Woburn,42.4806,-71.1562,IPv4,1,US,US-MA,Woburn,MaxMind GeoLite2
136.23.48.209/32,US,United States,Massachusetts,Worcester,42.2624,-71.8011,IPv4,1,US,US-MA,Worcester,MaxMind GeoLite2
136.23.48.210/32,US,United States,Maryland,Bel Air South,39.5066,-76.32,IPv4,1,US,US-MD,Bel Air South,MaxMind GeoLite2
136.23.48.211/32,US,United States,Maryland,Bowie,38.9428,-76.7303,IPv4,1,US,US-MD,Bowie,MaxMind GeoLite2
136.23.48.212/32,US,United States,Maryland,Columbia,39.211,-76.8362,IPv4,1,US,US-MD,Columbia,MaxMind GeoLite2
136.23.48.213/32,US,United States,Maryland,Ellicott City,39.2598,-76.7843,IPv4,1,US,US-MD,Ellicott City,MaxMind GeoLite2
136.23.48.214/32,US,United States,Maryland,Frederick,39.4152,-77.4154,IPv4,1,US,US-MD,Frederick,MaxMind GeoLite2
136.23.48.215/32,US,United States,Maryland,Glen Burnie,39.1658,-76.6382,IPv4,1,US,US-MD,Glen Burnie,MaxMind GeoLite2
136.23.48.216/32,US,United States,Maryland,Owings Mills,39.4224,-76.7763,IPv4,1,US,US-MD,Owings Mills,MaxMind GeoLite2
136.23.48.217/32,US,United States,Maryland,Rockville,39.0784,-77.1587,IPv4,1,US,US-MD,Rockville,MaxMind GeoLite2
136.23.48.218/32,US,United States,Maryland,Saint Charles,38.6032,-76.9386,IPv4,1,US,US-MD,Saint Charles,MaxMind GeoLite2
136.23.48.219/32,US,United States,Maryland,Salisbury,38.3607,-75.5994,IPv4,1,US,US-MD,Salisbury,MaxMind GeoLite2
136.23.48.220/32,US,United States,Maryland,Silver Spring,38.9886,-77.0241,IPv4,1,US,US-MD,Silver Spring,MaxMind GeoLite2
136.23.48.221/32,US,United States,Maryland,Wheaton-Glenmont,39.2909,-76.6096,IPv4,1,US,US-MD,Wheaton-Glenmont,MaxMind GeoLite2
136.23.48.222/32,US,United States,Maine,Bangor,44.8043,-68.7751,IPv4,1,US,US-ME,Bangor,MaxMind GeoLite2
136.23.48.223/32,US,United States,Maine,Kennebunkport,43.3618,-70.4767,IPv4,1,US,US-ME,Kennebunkport,MaxMind GeoLite2
136.23.48.224/32,US,United States,Maine,Lewiston,44.0969,-70.1863,IPv4,1,US,US-ME,Lewiston,MaxMind GeoLite2
136.23.48.225/32,US,United States,New Jersey,Egg Harbor Township,39.3773,-74.6123,IPv4,1,US,US-NJ,Egg Harbor Township,MaxMind GeoLite2
136.23.48.226/32,US,United States,New Jersey,Gloucester Township,40.7399,-74.1691,IPv4,1,US,US-NJ,Gloucester Township,MaxMind GeoLite2
136.23.48.227/32,US,United States,New Jersey,Town of Howell,40.1918,-74.1996,IPv4,1,US,US-NJ,Howell Township,MaxMind GeoLite2
136.23.48.228/32,US,United States,New Jersey,Middletown,40.3909,-74.1153,IPv4,1,US,US-NJ,Middletown Township,MaxMind GeoLite2
136.23.48.229/32,US,United States,New Jersey,Old Bridge,40.4148,-74.3654,IPv4,1,US,US-NJ,Old Bridge,MaxMind GeoLite2
136.23.48.230/32,US,United States,New Jersey,Parsippany-Troy Hills,40.7399,-74.1691,IPv4,1,US,US-NJ,Parsippany-Troy Hills,MaxMind GeoLite2
136.23.48.231/32,US,United States,New Jersey,Paterson,40.9186,-74.1781,IPv4,1,US,US-NJ,Paterson,MaxMind GeoLite2
136.23.48.232/32,US,United States,New Jersey,Piscataway,40.4993,-74.399,IPv4,1,US,US-NJ,Piscataway,MaxMind GeoLite2
136.23.48.233/32,US,United States,New Jersey,Plainfield,40.637,-74.4025,IPv4,1,US,US-NJ,Plainfield,MaxMind GeoLite2
136.23.48.234/32,US,United States,New Jersey,Raritan Township,40.7399,-74.1691,IPv4,1,US,US-NJ,Raritan Township,MaxMind GeoLite2
136.23.48.235/32,US,United States,New Jersey,Toms River,39.9537,-74.1979,IPv4,1,US,US-NJ,Toms River,MaxMind GeoLite2
136.23.48.236/32,US,United States,New Jersey,Trenton,40.2187,-74.7404,IPv4,1,US,US-NJ,Trenton,MaxMind GeoLite2
136.23.48.237/32,US,United States,New Jersey,Union,40.6947,-74.2688,IPv4,1,US,US-NJ,Union,MaxMind GeoLite2
136.23.48.238/32,US,United States,New Jersey,West Orange,40.798,-74.2416,IPv4,1,US,US-NJ,West Orange,MaxMind GeoLite2
136.23.48.239/32,US,United States,New Jersey,West Windsor Township,40.7399,-74.1691,IPv4,1,US,US-NJ,West Windsor Township,MaxMind GeoLite2
136.23.48.240/32,US,United States,New York,Binghamton,42.0944,-75.9034,IPv4,1,US,US-NY,Binghamton,MaxMind GeoLite2
136.23.48.241/32,US,United States,New York,Brighton,43.1442,-77.5503,IPv4,1,US,US-NY,Brighton,MaxMind GeoLite2
136.23.48.242/32,US,United States,New York,Getzville,43.0265,-78.7557,IPv4,1,US,US-NY,Getzville,MaxMind GeoLite2
136.23.48.243/32,US,United States,New York,Hempstead,40.7052,-73.619,IPv4,1,US,US-NY,Hempstead,MaxMind GeoLite2
136.23.48.244/32,US,United States,New York,Hicksville,40.7684,-73.5254,IPv4,1,US,US-NY,Hicksville,MaxMind GeoLite2
136.23.48.245/32,US,United States,New York,New City,41.1462,-73.9966,IPv4,1,US,US-NY,New City,MaxMind GeoLite2
136.23.48.246/32,US,United States,New York,Rochester,43.1567,-77.6107,IPv4,1,US,US-NY,Rochester,MaxMind GeoLite2
136.23.48.247/32,US,United States,New York,Schenectady,42.8107,-73.933,IPv4,1,US,US-NY,Schenectady,MaxMind GeoLite2
136.23.48.248/32,US,United States,New York,Utica,43.0982,-75.2319,IPv4,1,US,US-NY,Utica,MaxMind GeoLite2
136.23.48.249/32,US,United States,New York,West Babylon,40.7182,-73.3556,IPv4,1,US,US-NY,West Babylon,MaxMind GeoLite2
136.23.48.250/32,US,United States,New York,Brentwood,40.7801,-73.2458,IPv4,1,US,US-NY,Brentwood,MaxMind GeoLite2
136.23.48.251/32,US,United States,New York,White Plains,41.0326,-73.7621,IPv4,1,US,US-NY,White Plains,MaxMind GeoLite2
136.23.48.252/32,US,United States,New York,Yonkers,40.9286,-73.9,IPv4,1,US,US-NY,Yonkers,MaxMind GeoLite2
136.23.48.253/32,US,United States,Pennsylvania,Allentown,40.6096,-75.495,IPv4,1,US,US-PA,Allentown,MaxMind GeoLite2
136.23.48.254/32,US,United States,Pennsylvania,Colonial Park,40.2927,-76.817,IPv4,1,US,US-PA,Colonial Park,MaxMind GeoLite2
136.23.48.255/32,US,United States,Pennsylvania,Drexel Hill,39.9526,-75.2937,IPv4,1,US,US-PA,Drexel Hill,MaxMind GeoLite2
136.23.49.0/32,US,United States,Pennsylvania,Harrisburg,40.2655,-76.8812,IPv4,1,US,US-PA,Harrisburg,MaxMind GeoLite2
136.23.49.1/32,US,United States,Pennsylvania,Lancaster,40.045,-76.3003,IPv4,1,US,US-PA,Lancaster,MaxMind GeoLite2
136.23.49.2/32,US,United States,Pennsylvania,Lansdale,40.2363,-75.296,IPv4,1,US,US-PA,Lansdale,MaxMind GeoLite2
136.23.49.3/32,US,United States,Pennsylvania,Mechanicsburg,40.2127,-77.0213,IPv4,1,US,US-PA,Mechanicsburg,MaxMind GeoLite2
136.23.49.4/32,US,United States,Pennsylvania,Monroeville,40.4212,-79.7881,IPv4,1,US,US-PA,Monroeville,MaxMind GeoLite2
136.23.49.5/32,US,United States,Pennsylvania,Norristown,40.1215,-75.3269,IPv4,1,US,US-PA,Norristown,MaxMind GeoLite2
136.23.49.6/32,US,United States,Pennsylvania,Reading,40.3362,-75.9153,IPv4,1,US,US-PA,Reading,MaxMind GeoLite2
136.23.49.7/32,US,United States,Pennsylvania,Ross Township,40.5211,-80.0404,IPv4,1,US,US-PA,Ross Township,MaxMind GeoLite2
136.23.49.8/32,US,United States,Pennsylvania,Scranton,41.4115,-75.6694,IPv4,1,US,US-PA,Scranton,MaxMind GeoLite2
136.23.49.9/32,US,United States,Pennsylvania,State College,40.7954,-77.8614,IPv4,1,US,US-PA,State College,MaxMind GeoLite2
136.23.49.10/32,US,United States,Pennsylvania,Stroudsburg,40.9868,-75.1946,IPv4,1,US,US-PA,Stroudsburg,MaxMind GeoLite2
136.23.49.11/32,US,United States,Pennsylvania,West Goshen,39.9659,-75.5788,IPv4,1,US,US-PA,West Goshen,MaxMind GeoLite2
136.23.49.12/32,US,United States,Rhode Island,Warwick,41.6975,-71.4128,IPv4,1,US,US-RI,Warwick,MaxMind GeoLite2
136.23.49.13/32,US,United States,Virginia,Alexandria,38.8078,-77.0523,IPv4,1,US,US-VA,Alexandria,MaxMind GeoLite2
136.23.49.14/32,US,United States,Virginia,Chesapeake,36.819,-76.2749,IPv4,1,US,US-VA,Chesapeake,MaxMind GeoLite2
136.23.49.15/32,US,United States,Virginia,McLean,38.9363,-77.1698,IPv4,1,US,US-VA,McLean,MaxMind GeoLite2
136.23.49.16/32,US,United States,Virginia,Newport News,36.9886,-76.4143,IPv4,1,US,US-VA,Newport News,MaxMind GeoLite2
136.23.49.17/32,US,United States,Virginia,Virginia Beach,36.8566,-75.9832,IPv4,1,US,US-VA,Virginia Beach,MaxMind GeoLite2
136.23.49.18/32,US,United States,Virginia,Washington,38.7095,-78.1539,IPv4,1,US,US-VA,Washington,MaxMind GeoLite2
136.23.49.19/32,US,United States,West Virginia,Morgantown,39.6302,-79.9606,IPv4,1,US,US-WV,Morgantown,MaxMind GeoLite2
136.23.49.20/31,US,United States,New Jersey,Newark,40.7399,-74.1691,IPv4,2,US,US-NJ,Newark,MaxMind GeoLite2
136.23.49.22/32,US,United States,New York,Rochester,43.1567,-77.6107,IPv4,1,US,US-NY,Rochester,MaxMind GeoLite2
136.23.49.23/32,US,United States,New Hampshire,Lebanon,43.6423,-72.2518,IPv4,1,US,US-NH,Lebanon,MaxMind GeoLite2
136.23.49.24/29,US,United States,Massachusetts,Boston,42.3602,-71.0594,IPv4,8,US,US-MA,Boston,MaxMind GeoLite2
136.23.49.32/32,US,United States,Maryland,Annapolis,38.9747,-76.4932,IPv4,1,US,US-MD,Annapolis,MaxMind GeoLite2
136.23.49.33/32,US,United States,New York,Levittown,40.7279,-73.5118,IPv4,1,US,US-NY,Levittown,MaxMind GeoLite2
136.23.49.34/32,US,United States,Massachusetts,Plymouth,41.961,-70.664,IPv4,1,US,US-MA,Plymouth,MaxMind GeoLite2
136.23.49.35/32,US,United States,Massachusetts,Cambridge,42.3797,-71.1034,IPv4,1,US,US-MA,Cambridge,MaxMind GeoLite2
136.23.49.36/32,US,United States,New Jersey,Edison,40.5237,-74.4151,IPv4,1,US,US-NJ,Edison,MaxMind GeoLite2
136.23.49.37/32,US,United States,Virginia,Virginia Beach,36.8566,-75.9832,IPv4,1,US,US-VA,Virginia Beach,MaxMind GeoLite2
136.23.49.38/32,US,United States,Virginia,Norfolk,36.8429,-76.2864,IPv4,1,US,US-VA,Norfolk,MaxMind GeoLite2
136.23.49.39/32,US,United States,New York,Poughkeepsie,41.7017,-73.9078,IPv4,1,US,US-NY,Poughkeepsie,MaxMind GeoLite2
136.23.49.128/25,US,United States,,,37.751,-97.822,IPv4,128,US,,,MaxMind GeoLite2
136.23.50.0/26,JP,Japan,Osaka,Osaka,34.693,135.5005,IPv4,64,JP,JP-27,Osaka,MaxMind GeoLite2
136.23.50.64/26,TW,Taiwan,,,24.0,121.0,IPv4,64,TW,,,MaxMind GeoLite2
136.23.50.128/28,JP,Japan,Tokyo,Shinjuku,35.6879,139.7068,IPv4,16,JP,JP-13,Shinjuku,MaxMind GeoLite2
136.23.50.144/28,JP,Japan,Kanagawa,Yokohama,35.4337,139.6499,IPv4,16,JP,JP-14,Yokohama,MaxMind GeoLite2
136.23.50.160/29,JP,Japan,Hokkaido,Sapporo,43.0647,141.3489,IPv4,8,JP,JP-01,Sapporo,MaxMind GeoLite2
136.23.50.168/29,JP,Japan,Aichi,Nagoya,35.1784,136.9043,IPv4,8,JP,JP-23,Nagoya,MaxMind GeoLite2
136.23.50.176/29,SG,Singapore,,,1.3667,103.8,IPv4,8,SG,,,MaxMind GeoLite2
136.23.50.184/29,JP,Japan,Hiroshima,Hiroshima,34.3998,132.4503,IPv4,8,JP,JP-34,Hiroshima,MaxMind GeoLite2
136.23.50.192/30,JP,Japan,Tokyo,Chiyoda City,35.6836,139.7492,IPv4,4,JP,JP-13,Chiyoda,MaxMind GeoLite2
136.23.50.196/30,JP,Japan,Tokyo,Minato,35.6557,139.7491,IPv4,4,JP,JP-13,Minato,MaxMind GeoLite2
136.23.50.200/30,JP,Japan,Miyagi,Sendai,38.2676,140.87,IPv4,4,JP,JP-04,Sendai,MaxMind GeoLite2
136.23.50.204/30,JP,Japan,Tokyo,Shibuya City,35.6566,139.7043,IPv4,4,JP,JP-13,Shibuya,MaxMind GeoLite2
136.23.50.208/30,JP,Japan,Kanagawa,Kawasaki,35.5181,139.7226,IPv4,4,JP,JP-14,Kawasaki,MaxMind GeoLite2
136.23.50.212/30,JP,Japan,Aichi,Nishio,34.8642,137.0466,IPv4,4,JP,JP-23,Nishio,MaxMind GeoLite2
136.23.50.216/30,JP,Japan,Hyōgo,Kobe,34.6922,135.1816,IPv4,4,JP,JP-28,Kobe,MaxMind GeoLite2
136.23.50.220/31,JP,Japan,Aomori,Aomori,40.819,140.732,IPv4,2,JP,JP-02,Aomori,MaxMind GeoLite2
136.23.50.222/31,JP,Japan,Ibaraki,Mito,36.3503,140.4496,IPv4,2,JP,JP-08,Mito,MaxMind GeoLite2
136.23.50.224/31,JP,Japan,Ibaraki,Tsukuba,36.085,140.1111,IPv4,2,JP,JP-08,Tsukuba,MaxMind GeoLite2
136.23.50.226/31,JP,Japan,Saitama,Kawaguchi,35.8075,139.7155,IPv4,2,JP,JP-11,Kawaguchi,MaxMind GeoLite2
136.23.50.228/31,JP,Japan,Chiba,Chiba,35.6029,140.1187,IPv4,2,JP,JP-12,Chiba,MaxMind GeoLite2
136.23.50.230/31,JP,Japan,Chiba,Funabashi,35.7049,139.9843,IPv4,2,JP,JP-12,Funabashi,MaxMind GeoLite2
136.23.50.232/31,JP,Japan,Hyōgo,Koto,34.6922,135.1816,IPv4,2,JP,JP-13,Koto,MaxMind GeoLite2
136.23.50.234/31,JP,Japan,Tokyo,Meguro City,35.6331,139.702,IPv4,2,JP,JP-13,Meguro,MaxMind GeoLite2
136.23.50.236/31,JP,Japan,Tokyo,Nerima City,35.7421,139.6524,IPv4,2,JP,JP-13,Nerima,MaxMind GeoLite2
136.23.50.238/31,JP,Japan,Tokyo,Ōta,35.5641,139.7184,IPv4,2,JP,JP-13,Ota,MaxMind GeoLite2
136.23.50.240/31,JP,Japan,Tokyo,Setagaya City,35.6392,139.6509,IPv4,2,JP,JP-13,Setagaya,MaxMind GeoLite2
136.23.50.242/31,JP,Japan,Kanagawa,Fujisawa,35.351,139.4756,IPv4,2,JP,JP-14,Fujisawa,MaxMind GeoLite2
136.23.50.244/31,JP,Japan,Kanagawa,Hiratsuka,35.3298,139.3429,IPv4,2,JP,JP-14,Hiratsuka,MaxMind GeoLite2
136.23.50.246/31,JP,Japan,Shizuoka,Hamamatsu,34.699,137.7337,IPv4,2,JP,JP-22,Hamamatsu,MaxMind GeoLite2
136.23.50.248/31,JP,Japan,Aichi,Toyota,35.0815,137.1487,IPv4,2,JP,JP-23,Toyota,MaxMind GeoLite2
136.23.50.250/31,JP,Japan,Kyoto,Kyoto,35.0231,135.752,IPv4,2,JP,JP-26,Kyoto,MaxMind GeoLite2
136.23.50.252/31,JP,Japan,Osaka,Sakai,34.5827,135.4647,IPv4,2,JP,JP-27,Sakai,MaxMind GeoLite2
136.23.50.254/31,JP,Japan,Osaka,Suita,34.7615,135.5086,IPv4,2,JP,JP-27,Suita,MaxMind GeoLite2
136.23.51.0/31,JP,Japan,Hyōgo,Himeji,34.8136,134.6982,IPv4,2,JP,JP-28,Himeji,MaxMind GeoLite2
136.23.51.2/31,JP,Japan,Okayama,Okayama,34.6501,133.9311,IPv4,2,JP,JP-33,Okayama,MaxMind GeoLite2
136.23.51.4/31,JP,Japan,Ehime,Matsuyama,33.8407,132.7646,IPv4,2,JP,JP-38,Matsuyama,MaxMind GeoLite2
136.23.51.6/31,JP,Japan,Kagoshima,Kagoshima,31.5721,130.551,IPv4,2,JP,JP-46,Kagoshima,MaxMind GeoLite2
136.23.51.8/32,JP,Japan,Akita,Akita,39.7159,140.1174,IPv4,1,JP,JP-05,Akita,MaxMind GeoLite2
136.23.51.9/32,JP,Japan,Tokyo,Mure,35.6958,139.5855,IPv4,1,JP,JP-06,Yamagata,MaxMind GeoLite2
136.23.51.10/32,JP,Japan,Fukushima,Kōriyama,37.3999,140.3831,IPv4,1,JP,JP-07,Koriyama,MaxMind GeoLite2
136.23.51.11/32,JP,Japan,Tochigi,Oyama,36.2982,139.7995,IPv4,1,JP,JP-09,Oyama,MaxMind GeoLite2
136.23.51.12/32,JP,Japan,Tochigi,Utsunomiya,36.5652,139.8863,IPv4,1,JP,JP-09,Utsunomiya,MaxMind GeoLite2
136.23.51.13/32,JP,Japan,Gunma,Maebashi,36.4034,139.0844,IPv4,1,JP,JP-10,Maebashi,MaxMind GeoLite2
136.23.51.14/32,JP,Japan,Gunma,Ōta,36.3,139.3667,IPv4,1,JP,JP-10,Ota,MaxMind GeoLite2
136.23.51.15/32,JP,Japan,Saitama,Ageo,35.9692,139.6109,IPv4,1,JP,JP-11,Ageo,MaxMind GeoLite2
136.23.51.16/32,JP,Japan,Saitama,Fujimino,35.9033,139.5217,IPv4,1,JP,JP-11,Fujimi,MaxMind GeoLite2
136.23.51.17/32,JP,Japan,Saitama,Kasukabe,35.984,139.7532,IPv4,1,JP,JP-11,Kasukabe,MaxMind GeoLite2
136.23.51.18/32,JP,Japan,Saitama,Kawagoe,35.9045,139.4939,IPv4,1,JP,JP-11,Kawagoe,MaxMind GeoLite2
136.23.51.19/32,JP,Japan,Saitama,Koshigaya,35.8902,139.7926,IPv4,1,JP,JP-11,Koshigaya,MaxMind GeoLite2
136.23.51.20/32,JP,Japan,Saitama,Niiza,35.8218,139.5537,IPv4,1,JP,JP-11,Niiza,MaxMind GeoLite2
136.23.51.21/32,JP,Japan,Saitama,Sōka,35.8376,139.8019,IPv4,1,JP,JP-11,Soka,MaxMind GeoLite2
136.23.51.22/32,JP,Japan,Saitama,Tokorozawa,35.7975,139.4679,IPv4,1,JP,JP-11,Tokorozawa,MaxMind GeoLite2
136.23.51.23/32,JP,Japan,Chiba,Asahi,35.7145,140.6459,IPv4,1,JP,JP-12,Asahi,MaxMind GeoLite2
136.23.51.24/32,JP,Japan,Chiba,Ichihara,35.5187,140.0805,IPv4,1,JP,JP-12,Ichihara,MaxMind GeoLite2
136.23.51.25/32,JP,Japan,Chiba,Ichikawa,35.7355,139.9005,IPv4,1,JP,JP-12,Ichikawa,MaxMind GeoLite2
136.23.51.26/32,JP,Japan,Chiba,Inzai,35.8372,140.1677,IPv4,1,JP,JP-12,Inzai,MaxMind GeoLite2
136.23.51.27/32,JP,Japan,Chiba,Kashiwa,35.862,139.9776,IPv4,1,JP,JP-12,Kashiwa,MaxMind GeoLite2
136.23.51.28/32,JP,Japan,Chiba,Matsudo,35.7826,139.9033,IPv4,1,JP,JP-12,Matsudo,MaxMind GeoLite2
136.23.51.29/32,JP,Japan,Tokyo,Adachi City,35.7627,139.8063,IPv4,1,JP,JP-13,Adachi,MaxMind GeoLite2
136.23.51.30/32,JP,Japan,Tokyo,Chōfu,35.6604,139.5502,IPv4,1,JP,JP-13,Chofu,MaxMind GeoLite2
136.23.51.31/32,JP,Japan,Tokyo,Chuo,35.6663,139.7764,IPv4,1,JP,JP-13,Chuo,MaxMind GeoLite2
136.23.51.32/32,JP,Japan,Tokyo,Edogawa City,35.6907,139.8767,IPv4,1,JP,JP-13,Edogawa,MaxMind GeoLite2
136.23.51.33/32,JP,Japan,Tokyo,Fuchū,35.6716,139.4777,IPv4,1,JP,JP-13,Fuchu,MaxMind GeoLite2
136.23.51.34/32,JP,Japan,Tokyo,Hachiōji,35.6525,139.3227,IPv4,1,JP,JP-13,Hachioji,MaxMind GeoLite2
136.23.51.35/32,JP,Japan,Tokyo,tabashi City,35.7479,139.7148,IPv4,1,JP,JP-13,Itabashi,MaxMind GeoLite2
136.23.51.36/32,JP,Japan,Tokyo,Kita,35.752,139.7341,IPv4,1,JP,JP-13,Kita,MaxMind GeoLite2
136.23.51.37/32,JP,Japan,Tokyo,Kokubunji,35.7012,139.4757,IPv4,1,JP,JP-13,Kokubunji,MaxMind GeoLite2
136.23.51.38/32,JP,Japan,Tokyo,Musashino,35.7064,139.5633,IPv4,1,JP,JP-13,Musashino,MaxMind GeoLite2
136.23.51.39/32,JP,Japan,Tokyo,Nishitōkyō,35.733,139.5454,IPv4,1,JP,JP-13,Nishitokyo,MaxMind GeoLite2
136.23.51.40/32,JP,Japan,Tokyo,Ōme,35.7861,139.2409,IPv4,1,JP,JP-13,Ome,MaxMind GeoLite2
136.23.51.41/32,JP,Japan,Hyōgo,Shinagawa,34.6922,135.1816,IPv4,1,JP,JP-13,Shinagawa,MaxMind GeoLite2
136.23.51.42/32,JP,Japan,Hyōgo,Suginami,34.6922,135.1816,IPv4,1,JP,JP-13,Suginami,MaxMind GeoLite2
136.23.51.43/32,JP,Japan,Tokyo,Sumida City,35.7357,139.8253,IPv4,1,JP,JP-13,Sumida,MaxMind GeoLite2
136.23.51.44/32,JP,Japan,Tokyo,Tachikawa,35.7067,139.4232,IPv4,1,JP,JP-13,Tachikawa,MaxMind GeoLite2
136.23.51.45/32,JP,Japan,Kanagawa,Atsugi,35.4427,139.3719,IPv4,1,JP,JP-14,Atsugi,MaxMind GeoLite2
136.23.51.46/32,JP,Japan,Kanagawa,Ebina,35.3803,139.3947,IPv4,1,JP,JP-14,Ebina,MaxMind GeoLite2
136.23.51.47/32,JP,Japan,Kanagawa,Sagamihara,35.5602,139.2397,IPv4,1,JP,JP-14,Sagamihara,MaxMind GeoLite2
136.23.51.48/32,JP,Japan,Kanagawa,Yamato,35.4723,139.4506,IPv4,1,JP,JP-14,Yamato,MaxMind GeoLite2
136.23.51.49/32,JP,Japan,Niigata,Nagaoka,37.448,138.857,IPv4,1,JP,JP-15,Nagaoka,MaxMind GeoLite2
136.23.51.50/32,JP,Japan,Niigata,Niigata,37.9306,139.0362,IPv4,1,JP,JP-15,Niigata,MaxMind GeoLite2
136.23.51.51/32,JP,Japan,Toyama,Toyama,36.6984,137.2191,IPv4,1,JP,JP-16,Toyama,MaxMind GeoLite2
136.23.51.52/32,JP,Japan,Ishikawa,Kanazawa,36.5995,136.6145,IPv4,1,JP,JP-17,Kanazawa,MaxMind GeoLite2
136.23.51.53/32,JP,Japan,Yamanashi,Kofu,35.664,138.5703,IPv4,1,JP,JP-19,Kofu,MaxMind GeoLite2
136.23.51.54/32,JP,Japan,Nagano,Matsumoto,36.2342,137.9657,IPv4,1,JP,JP-20,Matsumoto,MaxMind GeoLite2
136.23.51.55/32,JP,Japan,Nagano,Nagano,36.6523,138.1852,IPv4,1,JP,JP-20,Nagano,MaxMind GeoLite2
136.23.51.56/32,JP,Japan,Nagano,Ueda,36.4087,138.271,IPv4,1,JP,JP-20,Ueda,MaxMind GeoLite2
136.23.51.57/32,JP,Japan,Gifu,Kakamigahara,35.4182,136.8694,IPv4,1,JP,JP-21,Kakamigahara,MaxMind GeoLite2
136.23.51.58/32,JP,Japan,Gifu,Ōgaki,35.3475,136.6133,IPv4,1,JP,JP-21,Ogaki,MaxMind GeoLite2
136.23.51.59/32,JP,Japan,Gifu,Tajimi,35.3159,137.1298,IPv4,1,JP,JP-21,Tajimi,MaxMind GeoLite2
136.23.51.60/32,JP,Japan,Shizuoka,Fuji,35.1673,138.686,IPv4,1,JP,JP-22,Fuji,MaxMind GeoLite2
136.23.51.61/32,JP,Japan,Shizuoka,Fujieda,34.8682,138.263,IPv4,1,JP,JP-22,Fujieda,MaxMind GeoLite2
136.23.51.62/32,JP,Japan,Shizuoka,Shizuoka,34.9804,138.3854,IPv4,1,JP,JP-22,Shizuoka,MaxMind GeoLite2
136.23.51.63/32,JP,Japan,Aichi,Ichinomiya,35.306,136.7947,IPv4,1,JP,JP-23,Ichinomiya,MaxMind GeoLite2
136.23.51.64/32,JP,Japan,Aichi,Inazawa,35.2497,136.7857,IPv4,1,JP,JP-23,Inazawa,MaxMind GeoLite2
136.23.51.65/32,JP,Japan,Aichi,Kasugai,35.2446,136.969,IPv4,1,JP,JP-23,Kasugai,MaxMind GeoLite2
136.23.51.66/32,JP,Japan,Aichi,Toyohashi,34.7673,137.3854,IPv4,1,JP,JP-23,Toyohashi,MaxMind GeoLite2
136.23.51.67/32,JP,Japan,Mie,Tsu,34.7361,136.522,IPv4,1,JP,JP-24,Tsu,MaxMind GeoLite2
136.23.51.68/32,JP,Japan,Mie,Yokkaichi,34.9647,136.6165,IPv4,1,JP,JP-24,Yokkaichi,MaxMind GeoLite2
136.23.51.69/32,JP,Japan,Shiga,Kusatsu,35.0149,135.964,IPv4,1,JP,JP-25,Kusatsu,MaxMind GeoLite2
136.23.51.70/32,JP,Japan,Kyoto,Kameoka,35.0016,135.5835,IPv4,1,JP,JP-26,Kameoka,MaxMind GeoLite2
136.23.51.71/32,JP,Japan,Osaka,Higashiosaka,34.6657,135.5849,IPv4,1,JP,JP-27,Higashiosaka,MaxMind GeoLite2
136.23.51.72/32,JP,Japan,Osaka,Hirakata,34.8151,135.6542,IPv4,1,JP,JP-27,Hirakata,MaxMind GeoLite2
136.23.51.73/32,JP,Japan,Osaka,Kishiwada,34.4651,135.3659,IPv4,1,JP,JP-27,Kishiwada,MaxMind GeoLite2
136.23.51.74/32,JP,Japan,Hyōgo,Kakogawa,34.7718,134.8256,IPv4,1,JP,JP-28,Kakogawa,MaxMind GeoLite2
136.23.51.75/32,JP,Japan,Hyōgo,Kawanishi,34.8164,135.4158,IPv4,1,JP,JP-28,Kawanishi,MaxMind GeoLite2
136.23.51.76/32,JP,Japan,Hyōgo,Nishinomiya,34.7175,135.3276,IPv4,1,JP,JP-28,Nishinomiya,MaxMind GeoLite2
136.23.51.77/32,JP,Japan,Hyōgo,Takarazuka,34.8007,135.3579,IPv4,1,JP,JP-28,Takarazuka,MaxMind GeoLite2
136.23.51.78/32,JP,Japan,Nara,Ikoma,34.6813,135.6958,IPv4,1,JP,JP-29,Ikoma,MaxMind GeoLite2
136.23.51.79/32,JP,Japan,Nara,Kashiwara,34.447,135.7641,IPv4,1,JP,JP-29,Kashihara,MaxMind GeoLite2
136.23.51.80/32,JP,Japan,Niigata,Nara,37.9306,139.0362,IPv4,1,JP,JP-29,Nara,MaxMind GeoLite2
136.23.51.81/32,JP,Japan,Wakayama,Wakayama,34.2357,135.1606,IPv4,1,JP,JP-30,Wakayama,MaxMind GeoLite2
136.23.51.82/32,JP,Japan,Hiroshima,Fukuyama,34.4835,133.3661,IPv4,1,JP,JP-34,Fukuyama,MaxMind GeoLite2
136.23.51.83/32,JP,Japan,Yamaguchi,Yamaguchi,34.1868,131.4645,IPv4,1,JP,JP-35,Yamaguchi,MaxMind GeoLite2
136.23.51.84/32,JP,Japan,Tokushima,Tokushima,34.0659,134.5653,IPv4,1,JP,JP-36,Tokushima,MaxMind GeoLite2
136.23.51.85/32,JP,Japan,Kagawa,Takamatsu,34.3316,134.0455,IPv4,1,JP,JP-37,Takamatsu,MaxMind GeoLite2
136.23.51.86/32,JP,Japan,Tokyo,Chikushino,35.6893,139.6899,IPv4,1,JP,JP-40,Chikushino,MaxMind GeoLite2
136.23.51.87/32,JP,Japan,Fukuoka,Kitakyushu,33.8518,130.8503,IPv4,1,JP,JP-40,Kitakyushu,MaxMind GeoLite2
136.23.51.88/32,JP,Japan,Fukuoka,Kurume,33.3164,130.5099,IPv4,1,JP,JP-40,Kurume,MaxMind GeoLite2
136.23.51.89/32,JP,Japan,Saga,Saga,33.2304,130.299,IPv4,1,JP,JP-41,Saga,MaxMind GeoLite2
136.23.51.90/32,JP,Japan,Nagasaki,Nagasaki,32.7481,129.8816,IPv4,1,JP,JP-42,Nagasaki,MaxMind GeoLite2
136.23.51.91/32,JP,Japan,Kumamoto,Kumamoto,32.8088,130.6927,IPv4,1,JP,JP-43,Kumamoto,MaxMind GeoLite2
136.23.51.92/32,JP,Japan,Oita,Ōita,33.2335,131.6005,IPv4,1,JP,JP-44,Oita,MaxMind GeoLite2
136.23.51.93/32,JP,Japan,Okinawa,Naha,26.2142,127.677,IPv4,1,JP,JP-47,Naha,MaxMind GeoLite2
136.23.51.94/31,JP,Japan,Kyoto,Kyoto,35.0231,135.752,IPv4,2,JP,JP-26,Kyoto,MaxMind GeoLite2
136.23.51.96/32,JP,Japan,Hyōgo,Bunkyo,34.6922,135.1816,IPv4,1,JP,JP-13,Bunkyo,MaxMind GeoLite2
136.23.51.97/32,JP,Japan,Chiba,Chiba,35.6029,140.1187,IPv4,1,JP,JP-12,Chiba,MaxMind GeoLite2
136.23.51.98/32,JP,Japan,Saitama,Kumagaya,36.1329,139.3877,IPv4,1,JP,JP-11,Kumagaya,MaxMind GeoLite2
136.23.51.99/32,JP,Japan,Tochigi,Utsunomiya,36.5652,139.8863,IPv4,1,JP,JP-09,Utsunomiya,MaxMind GeoLite2
136.23.51.100/32,JP,Japan,Osaka,Ibaraki,34.8164,135.5693,IPv4,1,JP,JP-27,Ibaraki,MaxMind GeoLite2
136.23.51.101/32,JP,Japan,Akita,Akita,39.7159,140.1174,IPv4,1,JP,JP-05,Akita,MaxMind GeoLite2
136.23.51.102/32,JP,Japan,Saitama,Kukichūō,36.0706,139.6759,IPv4,1,JP,JP-11,Kuki,MaxMind GeoLite2
136.23.51.103/32,JP,Japan,Ishikawa,Kanazawa,36.5995,136.6145,IPv4,1,JP,JP-17,Kanazawa,MaxMind GeoLite2
136.23.51.104/32,JP,Japan,Toyama,Toyama,36.6984,137.2191,IPv4,1,JP,JP-16,Toyama,MaxMind GeoLite2
136.23.51.105/32,JP,Japan,Okinawa,Okinawa,26.3404,127.8025,IPv4,1,JP,JP-47,Okinawa,MaxMind GeoLite2
136.23.51.106/32,JP,Japan,Shizuoka,Gotemba,35.3215,138.9478,IPv4,1,JP,JP-22,Gotemba,MaxMind GeoLite2
136.23.51.107/32,JP,Japan,Kyoto,Uji,34.8922,135.8072,IPv4,1,JP,JP-26,Uji,MaxMind GeoLite2
136.23.51.108/32,JP,Japan,Tokyo,Toshima City,35.7595,139.7487,IPv4,1,JP,JP-13,Toshima,MaxMind GeoLite2
136.23.51.109/32,JP,Japan,Fukuoka,Kitakyushu,33.8518,130.8503,IPv4,1,JP,JP-40,Kitakyushu,MaxMind GeoLite2
136.23.51.110/32,JP,Japan,Fukui,Fukui,35.8513,136.2171,IPv4,1,JP,JP-18,Fukui,MaxMind GeoLite2
136.23.51.111/32,JP,Japan,Tokyo,Taitō City,35.7064,139.7775,IPv4,1,JP,JP-13,Taito,MaxMind GeoLite2
136.23.51.112/32,JP,Japan,Fukushima,Fukushima,37.7496,140.4695,IPv4,1,JP,JP-07,Fukushima,MaxMind GeoLite2
136.23.51.120/29,SG,Singapore,,Singapore,1.2872,103.8507,IPv4,8,SG,,Singapore,MaxMind GeoLite2
136.23.51.128/25,JP,Japan,,,35.69,139.69,IPv4,128,JP,,,MaxMind GeoLite2
136.23.52.0/27,CA,Canada,Ontario,Toronto,43.709,-79.4057,IPv4,32,CA,CA-ON,Toronto,MaxMind GeoLite2
136.23.52.32/28,CA,Canada,Quebec,Montreal,45.5075,-73.5887,IPv4,16,CA,CA-QC,Montreal,MaxMind GeoLite2
136.23.52.48/28,US,United States,Michigan,Detroit,42.3318,-83.0465,IPv4,16,US,US-MI,Detroit,MaxMind GeoLite2
136.23.52.64/29,CA,Canada,Ontario,London,42.9856,-81.2348,IPv4,8,CA,CA-ON,London,MaxMind GeoLite2
136.23.52.72/30,CA,Canada,Saskatchewan,Saskatoon,52.1344,-106.6537,IPv4,4,CA,CA-SK,Saskatoon,MaxMind GeoLite2
136.23.52.76/30,CA,Canada,British Columbia,Kelowna,49.8956,-119.4897,IPv4,4,CA,CA-BC,Kelowna,MaxMind GeoLite2
136.23.52.80/30,CA,Canada,Ontario,Burlington,43.3786,-79.8475,IPv4,4,CA,CA-ON,Burlington,MaxMind GeoLite2
136.23.52.84/30,CA,Canada,Ontario,Hamilton,43.2549,-79.8556,IPv4,4,CA,CA-ON,Hamilton,MaxMind GeoLite2
136.23.52.88/30,CA,Canada,Ontario,Kitchener,43.4325,-80.4997,IPv4,4,CA,CA-ON,Kitchener,MaxMind GeoLite2
136.23.52.92/30,CA,Canada,Ontario,Markham,43.866,-79.266,IPv4,4,CA,CA-ON,Markham,MaxMind GeoLite2
136.23.52.96/30,CA,Canada,Ontario,Vaughan,43.8304,-79.504,IPv4,4,CA,CA-ON,Vaughan,MaxMind GeoLite2
136.23.52.100/30,CA,Canada,Quebec,Québec,46.8127,-71.2226,IPv4,4,CA,CA-QC,Quebec City,MaxMind GeoLite2
136.23.52.104/30,US,United States,New York,Buffalo,42.8864,-78.8784,IPv4,4,US,US-NY,Buffalo,MaxMind GeoLite2
136.23.52.108/31,CA,Canada,Ontario,Brampton,43.6913,-79.762,IPv4,2,CA,CA-ON,Brampton,MaxMind GeoLite2
136.23.52.110/31,CA,Canada,Ontario,Guelph,43.5483,-80.2511,IPv4,2,CA,CA-ON,Guelph,MaxMind GeoLite2
136.23.52.112/31,CA,Canada,Ontario,Kingston,44.2289,-76.476,IPv4,2,CA,CA-ON,Kingston,MaxMind GeoLite2
136.23.52.114/31,CA,Canada,Ontario,Mississauga,43.5792,-79.6591,IPv4,2,CA,CA-ON,Mississauga,MaxMind GeoLite2
136.23.52.116/31,CA,Canada,Ontario,Oshawa,43.9001,-78.8496,IPv4,2,CA,CA-ON,Oshawa,MaxMind GeoLite2
136.23.52.118/31,CA,Canada,Quebec,Boucherville,45.5954,-73.4365,IPv4,2,CA,CA-QC,Boucherville,MaxMind GeoLite2
136.23.52.120/31,CA,Canada,Quebec,Laval,45.581,-73.6868,IPv4,2,CA,CA-QC,Laval,MaxMind GeoLite2
136.23.52.122/32,CA,Canada,Ontario,Whitby,43.8762,-78.9261,IPv4,1,CA,CA-ON,Whitby,MaxMind GeoLite2
136.23.52.123/32,CA,Canada,Quebec,Lévis,46.8049,-71.1755,IPv4,1,CA,CA-QC,Levis,MaxMind GeoLite2
136.23.52.124/32,CA,Canada,Quebec,Saint-Jérôme,45.7826,-74.0041,IPv4,1,CA,CA-QC,Saint-Jerome,MaxMind GeoLite2
136.23.52.125/32,CA,Canada,Quebec,Sherbrooke,45.4011,-71.8999,IPv4,1,CA,CA-QC,Sherbrooke,MaxMind GeoLite2
136.23.52.126/32,CA,Canada,Quebec,Trois-Rivières,46.3404,-72.5388,IPv4,1,CA,CA-QC,Trois-Rivieres,MaxMind GeoLite2
136.23.52.127/32,CA,Canada,Quebec,Vaudreuil-Dorion,45.4017,-74.0335,IPv4,1,CA,CA-QC,Vaudreuil-Dorion,MaxMind GeoLite2
136.23.52.128/32,US,United States,Michigan,Canton,42.3087,-83.4822,IPv4,1,US,US-MI,Canton,MaxMind GeoLite2
136.23.52.129/32,US,United States,Michigan,Novi,42.4777,-83.4759,IPv4,1,US,US-MI,Novi,MaxMind GeoLite2
136.23.52.130/32,US,United States,Michigan,Southfield,42.4734,-83.2212,IPv4,1,US,US-MI,Southfield,MaxMind GeoLite2
136.23.52.131/32,US,United States,New York,Getzville,43.0265,-78.7557,IPv4,1,US,US-NY,Getzville,MaxMind GeoLite2
136.23.52.132/32,US,United States,Ohio,Euclid,41.6018,-81.5257,IPv4,1,US,US-OH,Euclid,MaxMind GeoLite2
136.23.52.133/32,CA,Canada,Ontario,Brampton,43.6913,-79.762,IPv4,1,CA,CA-ON,Brampton,MaxMind GeoLite2
136.23.52.134/31,CA,Canada,Ontario,Barrie,44.4006,-79.6676,IPv4,2,CA,CA-ON,Barrie,MaxMind GeoLite2
136.23.52.136/32,US,United States,Michigan,Livonia,42.3625,-83.3447,IPv4,1,US,US-MI,Livonia,MaxMind GeoLite2
136.23.52.137/32,CA,Canada,Quebec,Boucherville,45.5954,-73.4365,IPv4,1,CA,CA-QC,Boucherville,MaxMind GeoLite2
136.23.52.138/32,CA,Canada,Ontario,Oshawa,43.9001,-78.8496,IPv4,1,CA,CA-ON,Oshawa,MaxMind GeoLite2
136.23.52.139/32,CA,Canada,Ontario,Mississauga,43.5792,-79.6591,IPv4,1,CA,CA-ON,Mississauga,MaxMind GeoLite2
136.23.52.140/32,CA,Canada,Ontario,Guelph,43.5483,-80.2511,IPv4,1,CA,CA-ON,Guelph,MaxMind GeoLite2
136.23.52.141/32,US,United States,Michigan,Taylor,42.238,-83.2807,IPv4,1,US,US-MI,Taylor,MaxMind GeoLite2
136.23.52.192/26,CA,Canada,,,43.6319,-79.3716,IPv4,64,CA,,,MaxMind GeoLite2
136.23.53.0/27,US,United States,Washington,Seattle,47.6109,-122.3303,IPv4,32,US,US-WA,Seattle,MaxMind GeoLite2
136.23.53.32/28,CA,Canada,British Columbia,Vancouver,49.2476,-123.1234,IPv4,16,CA,CA-BC,Vancouver,MaxMind GeoLite2
136.23.53.48/28,CA,Canada,Alberta,Edmonton,53.5521,-113.4685,IPv4,16,CA,CA-AB,Edmonton,MaxMind GeoLite2
136.23.53.64/28,US,United States,Oregon,Portland,45.5248,-122.6789,IPv4,16,US,US-OR,Portland,MaxMind GeoLite2
136.23.53.80/29,CA,Canada,British Columbia,Richmond,49.1689,-123.1442,IPv4,8,CA,CA-BC,Richmond,MaxMind GeoLite2
136.23.53.88/29,CA,Canada,British Columbia,Surrey,49.1049,-122.824,IPv4,8,CA,CA-BC,Surrey,MaxMind GeoLite2
136.23.53.96/29,US,United States,Hawaii,Honolulu,21.3042,-157.8588,IPv4,8,US,US-HI,Honolulu,MaxMind GeoLite2
136.23.53.104/30,US,United States,Oregon,Salem,44.9458,-123.0388,IPv4,4,US,US-OR,Salem,MaxMind GeoLite2
136.23.53.108/30,CA,Canada,British Columbia,Kelowna,49.8956,-119.4897,IPv4,4,CA,CA-BC,Kelowna,MaxMind GeoLite2
136.23.53.112/30,US,United States,Idaho,Boise,43.6165,-116.2001,IPv4,4,US,US-ID,Boise,MaxMind GeoLite2
136.23.53.116/30,US,United States,Montana,Billings,45.785,-108.496,IPv4,4,US,US-MT,Billings,MaxMind GeoLite2
136.23.53.120/30,US,United States,Washington,Kirkland,47.6787,-122.2117,IPv4,4,US,US-WA,Kirkland,MaxMind GeoLite2
136.23.53.124/31,US,United States,Oregon,Boardman,45.8401,-119.705,IPv4,2,US,US-OR,Boardman,MaxMind GeoLite2
136.23.53.126/31,US,United States,Washington,Bellevue,47.6126,-122.2037,IPv4,2,US,US-WA,Bellevue,MaxMind GeoLite2
136.23.53.128/31,US,United States,Washington,Everett,47.9856,-122.2002,IPv4,2,US,US-WA,Everett,MaxMind GeoLite2
136.23.53.130/31,US,United States,Washington,Kent,47.3822,-122.2415,IPv4,2,US,US-WA,Kent,MaxMind GeoLite2
136.23.53.132/31,US,United States,Washington,Lacey,47.024,-122.7827,IPv4,2,US,US-WA,Lacey,MaxMind GeoLite2
136.23.53.134/31,US,United States,Washington,Shoreline,47.7519,-122.3434,IPv4,2,US,US-WA,Shoreline,MaxMind GeoLite2
136.23.53.136/31,US,United States,Washington,Spokane,47.6597,-117.4291,IPv4,2,US,US-WA,Spokane,MaxMind GeoLite2
136.23.53.138/31,US,United States,Washington,Tacoma,47.2565,-122.4421,IPv4,2,US,US-WA,Tacoma,MaxMind GeoLite2
136.23.53.140/32,US,United States,Alaska,Anchorage,61.2199,-149.9077,IPv4,1,US,US-AK,Anchorage,MaxMind GeoLite2
136.23.53.141/32,US,United States,Hawaii,Mililani Town,21.4535,-158.0193,IPv4,1,US,US-HI,Mililani,MaxMind GeoLite2
136.23.53.142/32,US,United States,Idaho,Nampa,43.5441,-116.5662,IPv4,1,US,US-ID,Nampa,MaxMind GeoLite2
136.23.53.143/32,US,United States,Oregon,Grants Pass,42.4405,-123.3312,IPv4,1,US,US-OR,Grants Pass,MaxMind GeoLite2
136.23.53.144/32,US,United States,Oregon,Gresham,45.4982,-122.4315,IPv4,1,US,US-OR,Gresham,MaxMind GeoLite2
136.23.53.145/32,US,United States,Oregon,Medford,42.3394,-122.8475,IPv4,1,US,US-OR,Medford,MaxMind GeoLite2
136.23.53.146/32,US,United States,Oregon,Prineville,44.3041,-120.8364,IPv4,1,US,US-OR,Prineville,MaxMind GeoLite2
136.23.53.147/32,US,United States,Oregon,Tigard,45.4241,-122.7691,IPv4,1,US,US-OR,Tigard,MaxMind GeoLite2
136.23.53.148/32,US,United States,Washington,Bellingham,48.76,-122.4902,IPv4,1,US,US-WA,Bellingham,MaxMind GeoLite2
136.23.53.149/32,US,United States,Washington,Lakewood,47.171,-122.5089,IPv4,1,US,US-WA,Lakewood,MaxMind GeoLite2
136.23.53.150/32,US,United States,Washington,North Creek,47.8147,-122.1798,IPv4,1,US,US-WA,North Creek,MaxMind GeoLite2
136.23.53.151/32,US,United States,Washington,Quincy,47.2343,-119.8525,IPv4,1,US,US-WA,Quincy,MaxMind GeoLite2
136.23.53.152/32,US,United States,Washington,Renton,47.4714,-122.2203,IPv4,1,US,US-WA,Renton,MaxMind GeoLite2
136.23.53.153/32,US,United States,Washington,South Hill,47.1445,-122.2548,IPv4,1,US,US-WA,South Hill,MaxMind GeoLite2
136.23.53.154/31,US,United States,Washington,Spokane,47.6597,-117.4291,IPv4,2,US,US-WA,Spokane,MaxMind GeoLite2
136.23.53.156/32,US,United States,Oregon,Beaverton,45.4844,-122.811,IPv4,1,US,US-OR,Beaverton,MaxMind GeoLite2
136.23.53.157/32,US,United States,Washington,Burien,47.465,-122.3553,IPv4,1,US,US-WA,Burien,MaxMind GeoLite2
136.23.53.158/32,CA,Canada,Alberta,Calgary,51.05,-114.0879,IPv4,1,CA,CA-AB,Calgary,MaxMind GeoLite2
136.23.53.159/32,US,United States,Oregon,Gresham,45.4982,-122.4315,IPv4,1,US,US-OR,Gresham,MaxMind GeoLite2
136.23.53.160/32,US,United States,Washington,Longview,46.1382,-122.9382,IPv4,1,US,US-WA,Longview,MaxMind GeoLite2
136.23.53.192/26,CA,Canada,,,43.6319,-79.3716,IPv4,64,CA,,,MaxMind GeoLite2
136.23.54.0/25,AU,Australia,,,-33.494,143.2104,IPv4,128,AU,,,MaxMind GeoLite2
136.23.54.128/25,US,United States,,,37.751,-97.822,IPv4,128,US,,,MaxMind GeoLite2
136.23.55.0/27,US,United States,Florida,Orlando,28.5436,-81.3738,IPv4,32,US,US-FL,Orlando,MaxMind GeoLite2
136.23.55.32/29,US,United States,Florida,Miami,25.7701,-80.1928,IPv4,8,US,US-FL,Miami,MaxMind GeoLite2
136.23.55.40/30,US,United States,Florida,Jacksonville,30.3337,-81.6542,IPv4,4,US,US-FL,Jacksonville,MaxMind GeoLite2
136.23.55.44/30,US,United States,Alabama,Birmingham,33.5226,-86.8033,IPv4,4,US,US-AL,Birmingham,MaxMind GeoLite2
136.23.55.48/30,US,United States,Georgia,Savannah,32.0856,-81.0964,IPv4,4,US,US-GA,Savannah,MaxMind GeoLite2
136.23.55.52/31,US,United States,Florida,Melbourne,28.0855,-80.6041,IPv4,2,US,US-FL,Melbourne,MaxMind GeoLite2
136.23.55.54/31,US,United States,Florida,Sanford,28.8006,-81.2731,IPv4,2,US,US-FL,Sanford,MaxMind GeoLite2
136.23.55.56/31,US,United States,Florida,Tallahassee,30.4366,-84.2764,IPv4,2,US,US-FL,Tallahassee,MaxMind GeoLite2
136.23.55.58/31,US,United States,Florida,Wesley Chapel,28.2365,-82.3289,IPv4,2,US,US-FL,Wesley Chapel,MaxMind GeoLite2
136.23.55.60/32,US,United States,Alabama,Auburn,32.6098,-85.4768,IPv4,1,US,US-AL,Auburn,MaxMind GeoLite2
136.23.55.61/32,US,United States,Alabama,Montgomery,32.3649,-86.2991,IPv4,1,US,US-AL,Montgomery,MaxMind GeoLite2
136.23.55.62/32,US,United States,Alabama,Trussville,33.6198,-86.6089,IPv4,1,US,US-AL,Trussville,MaxMind GeoLite2
136.23.55.63/32,US,United States,Florida,Apopka,28.6773,-81.5085,IPv4,1,US,US-FL,Apopka,MaxMind GeoLite2
136.23.55.64/32,US,United States,Florida,Boca Raton,26.3594,-80.0771,IPv4,1,US,US-FL,Boca Raton,MaxMind GeoLite2
136.23.55.65/32,US,United States,Florida,Bradenton,27.5025,-82.575,IPv4,1,US,US-FL,Bradenton,MaxMind GeoLite2
136.23.55.66/32,US,United States,Florida,Brandon,27.9321,-82.2904,IPv4,1,US,US-FL,Brandon,MaxMind GeoLite2
136.23.55.67/32,US,United States,Florida,Cape Coral,26.5661,-81.9506,IPv4,1,US,US-FL,Cape Coral,MaxMind GeoLite2
136.23.55.68/32,US,United States,Florida,Clermont,28.5478,-81.7688,IPv4,1,US,US-FL,Clermont,MaxMind GeoLite2
136.23.55.69/32,US,United States,Florida,Coral Springs,26.2685,-80.2717,IPv4,1,US,US-FL,Coral Springs,MaxMind GeoLite2
136.23.55.70/32,US,United States,Florida,Davie,26.0654,-80.2339,IPv4,1,US,US-FL,Davie,MaxMind GeoLite2
136.23.55.71/32,US,United States,Florida,Daytona Beach,29.2119,-81.0184,IPv4,1,US,US-FL,Daytona Beach,MaxMind GeoLite2
136.23.55.72/32,US,United States,Florida,Fort Myers,26.6207,-81.8325,IPv4,1,US,US-FL,Fort Myers,MaxMind GeoLite2
136.23.55.73/32,US,United States,Florida,Four Corners,28.3313,-81.6471,IPv4,1,US,US-FL,Four Corners,MaxMind GeoLite2
136.23.55.74/32,US,United States,Florida,Fort Lauderdale,26.1185,-80.145,IPv4,1,US,US-FL,Fort Lauderdale,MaxMind GeoLite2
136.23.55.75/32,US,United States,Florida,Gainesville,29.6467,-82.3284,IPv4,1,US,US-FL,Gainesville,MaxMind GeoLite2
136.23.55.76/32,US,United States,Florida,Hunters Creek,28.3597,-81.4207,IPv4,1,US,US-FL,Hunters Creek,MaxMind GeoLite2
136.23.55.77/32,US,United States,Florida,Kendall,25.6922,-80.3165,IPv4,1,US,US-FL,Kendall,MaxMind GeoLite2
136.23.55.78/32,US,United States,Florida,Kissimmee,28.3056,-81.4197,IPv4,1,US,US-FL,Kissimmee,MaxMind GeoLite2
136.23.55.79/32,US,United States,Florida,Lakeland,28.0395,-81.9498,IPv4,1,US,US-FL,Lakeland,MaxMind GeoLite2
136.23.55.80/32,US,United States,Florida,Lakewood Rch,27.3874,-82.429,IPv4,1,US,US-FL,Lakewood Ranch,MaxMind GeoLite2
136.23.55.81/32,US,United States,Florida,Naples,26.1357,-81.7908,IPv4,1,US,US-FL,Naples,MaxMind GeoLite2
136.23.55.82/32,US,United States,Florida,North Port,27.0476,-82.2377,IPv4,1,US,US-FL,North Port,MaxMind GeoLite2
136.23.55.83/32,US,United States,Florida,Ocala,29.1907,-82.1422,IPv4,1,US,US-FL,Ocala,MaxMind GeoLite2
136.23.55.84/32,US,United States,Florida,Oviedo,28.67,-81.2081,IPv4,1,US,US-FL,Oviedo,MaxMind GeoLite2
136.23.55.85/32,US,United States,Florida,Panama City,30.1574,-85.6561,IPv4,1,US,US-FL,Panama City,MaxMind GeoLite2
136.23.55.86/32,US,United States,Florida,Pembroke Pines,26.0003,-80.2213,IPv4,1,US,US-FL,Pembroke Pines,MaxMind GeoLite2
136.23.55.87/32,US,United States,Florida,Port Saint Lucie,27.2939,-80.3503,IPv4,1,US,US-FL,Port St. Lucie,MaxMind GeoLite2
136.23.55.88/32,US,United States,Florida,Riverview,27.8672,-82.3503,IPv4,1,US,US-FL,Riverview,MaxMind GeoLite2
136.23.55.89/32,US,United States,Florida,Saint Johns,29.9122,-81.4074,IPv4,1,US,US-FL,Saint Johns,MaxMind GeoLite2
136.23.55.90/32,US,United States,Florida,Spring Hill,28.4747,-82.5159,IPv4,1,US,US-FL,Spring Hill,MaxMind GeoLite2
136.23.55.91/32,US,United States,Florida,St. Petersburg,27.7691,-82.6759,IPv4,1,US,US-FL,St. Petersburg,MaxMind GeoLite2
136.23.55.92/32,US,United States,Florida,Tamiami,25.7574,-80.4039,IPv4,1,US,US-FL,Tamiami,MaxMind GeoLite2
136.23.55.93/32,US,United States,Florida,Trinity,28.1847,-82.6825,IPv4,1,US,US-FL,Trinity,MaxMind GeoLite2
136.23.55.94/32,US,United States,Florida,West Palm Beach,26.7158,-80.0491,IPv4,1,US,US-FL,West Palm Beach,MaxMind GeoLite2
136.23.55.95/32,US,United States,Florida,Winter Haven,28.0253,-81.7395,IPv4,1,US,US-FL,Winter Haven,MaxMind GeoLite2
136.23.55.96/32,US,United States,Georgia,Augusta,33.4741,-81.9809,IPv4,1,US,US-GA,Augusta,MaxMind GeoLite2
136.23.55.97/32,US,United States,Florida,Rockledge,28.3525,-80.7213,IPv4,1,US,US-FL,Rockledge,MaxMind GeoLite2
136.23.55.98/32,DO,Dominican Republic,,,19.0,-70.6667,IPv4,1,DO,,,MaxMind GeoLite2
136.23.55.99/32,MX,Mexico,Quintana Roo,Cancún,21.1757,-86.8489,IPv4,1,MX,MX-ROO,Cancun,MaxMind GeoLite2
136.23.55.128/30,DK,Denmark,Capital Region,Copenhagen,55.674,12.5696,IPv4,4,DK,DK-84,Copenhagen,MaxMind GeoLite2
136.23.55.132/30,NO,Norway,Oslo,Oslo Municipality,59.9133,10.7389,IPv4,4,NO,NO-03,Oslo Municipality,MaxMind GeoLite2
136.23.55.136/30,NO,Norway,Vestland,Bergen Municipality,60.3951,5.3237,IPv4,4,NO,NO-46,Bergen Municipality,MaxMind GeoLite2
136.23.55.140/30,SE,Sweden,Västra Götaland County,Gothenburg,57.7065,11.967,IPv4,4,SE,SE-O,Gothenburg,MaxMind GeoLite2
136.23.55.144/31,FI,Finland,Uusimaa,Helsinki,60.1719,24.9347,IPv4,2,FI,FI-18,Helsinki,MaxMind GeoLite2
136.23.55.146/31,NO,Norway,Trøndelag,Trondheim Municipality,63.4306,10.4037,IPv4,2,NO,NO-50,Trondheim Municipality,MaxMind GeoLite2
136.23.55.148/31,SE,Sweden,Uppsala County,Uppsala,59.856,17.6403,IPv4,2,SE,SE-C,Uppsala,MaxMind GeoLite2
136.23.55.150/31,SE,Sweden,Skåne County,Malmo,55.6078,12.9982,IPv4,2,SE,SE-M,Malmo,MaxMind GeoLite2
136.23.55.152/32,FI,Finland,Pirkanmaa,Tampere,61.4966,23.7831,IPv4,1,FI,FI-11,Tampere,MaxMind GeoLite2
136.23.55.153/32,NO,Norway,Akershus,Lillestrøm,59.9536,11.062,IPv4,1,NO,NO-30,Lillestrom,MaxMind GeoLite2
136.23.55.154/32,NO,Norway,Akershus,Bærum,59.8911,10.5225,IPv4,1,NO,NO-30,Baerum,MaxMind GeoLite2
136.23.55.155/32,NO,Norway,NO-30,Fredrikstad Municipality,59.9463,10.7541,IPv4,1,NO,NO-30,Fredrikstad Municipality,MaxMind GeoLite2
136.23.55.156/32,SE,Sweden,Stockholm County,Huddinge,59.238,17.9893,IPv4,1,SE,SE-AB,Huddinge,MaxMind GeoLite2
136.23.55.157/32,SE,Sweden,Stockholm County,Täby,59.4417,18.0637,IPv4,1,SE,SE-AB,Taby,MaxMind GeoLite2
136.23.55.158/32,SE,Sweden,Norrbotten County,Luleå,65.5864,22.1457,IPv4,1,SE,SE-BD,Lulea,MaxMind GeoLite2
136.23.55.159/32,SE,Sweden,Östergötland County,Linkoping,58.4127,15.631,IPv4,1,SE,SE-E,Linkoping,MaxMind GeoLite2
136.23.55.160/32,SE,Sweden,Kronoberg County,Vaxjo,56.8746,14.8124,IPv4,1,SE,SE-G,Vaxjo,MaxMind GeoLite2
136.23.55.161/32,SE,Sweden,Skåne County,Lund,55.7037,13.1946,IPv4,1,SE,SE-M,Lund,MaxMind GeoLite2
136.23.55.162/32,SE,Sweden,Västra Götaland County,Borås,57.7192,12.9412,IPv4,1,SE,SE-O,Boras,MaxMind GeoLite2
136.23.55.163/32,DE,Germany,Schleswig-Holstein,Flensburg,54.7889,9.4358,IPv4,1,DE,DE-SH,Flensburg,MaxMind GeoLite2
136.23.55.164/30,DK,Denmark,,,55.7123,12.0564,IPv4,4,DK,,,MaxMind GeoLite2
136.23.55.168/29,NO,Norway,,,59.9463,10.7541,IPv4,8,NO,,,MaxMind GeoLite2
136.23.55.176/28,SE,Sweden,,,59.3247,18.056,IPv4,16,SE,,,MaxMind GeoLite2
136.23.55.192/26,GB,United Kingdom,,,51.4964,-0.1224,IPv4,64,GB,,,MaxMind GeoLite2
136.23.56.0/25,US,United States,New York,New York,40.7126,-74.0066,IPv4,128,US,US-NY,New York City,MaxMind GeoLite2
136.23.56.128/26,US,United States,North Carolina,Charlotte,35.2296,-80.843,IPv4,64,US,US-NC,Charlotte,MaxMind GeoLite2
136.23.56.192/27,US,United States,Maryland,Baltimore,39.2909,-76.6096,IPv4,32,US,US-MD,Baltimore,MaxMind GeoLite2
136.23.56.224/28,US,United States,Ohio,Cleveland,41.5,-81.6938,IPv4,16,US,US-OH,Cleveland,MaxMind GeoLite2
136.23.56.240/28,US,United States,Pennsylvania,Philadelphia,39.9522,-75.1647,IPv4,16,US,US-PA,Philadelphia,MaxMind GeoLite2
136.23.57.0/29,US,United States,Massachusetts,Boston,42.3602,-71.0594,IPv4,8,US,US-MA,Boston,MaxMind GeoLite2
136.23.57.8/29,US,United States,North Carolina,Raleigh,35.7704,-78.6293,IPv4,8,US,US-NC,Raleigh,MaxMind GeoLite2
136.23.57.16/29,US,United States,Pennsylvania,Pittsburgh,40.4422,-79.9927,IPv4,8,US,US-PA,Pittsburgh,MaxMind GeoLite2
136.23.57.24/29,CA,Canada,Ontario,London,42.9856,-81.2348,IPv4,8,CA,CA-ON,London,MaxMind GeoLite2
136.23.57.32/29,US,United States,District of Columbia,Washington,38.894,-77.0365,IPv4,8,US,US-DC,Washington,MaxMind GeoLite2
136.23.57.40/29,US,United States,Ohio,Columbus,39.9587,-82.9987,IPv4,8,US,US-OH,Columbus,MaxMind GeoLite2
136.23.57.48/30,US,United States,South Carolina,Charleston,32.7771,-79.9305,IPv4,4,US,US-SC,Charleston,MaxMind GeoLite2
136.23.57.52/30,US,United States,Virginia,Ashburn,39.0469,-77.4903,IPv4,4,US,US-VA,Ashburn,MaxMind GeoLite2
136.23.57.56/30,US,United States,Virginia,Reston,38.9653,-77.338,IPv4,4,US,US-VA,Reston,MaxMind GeoLite2
136.23.57.60/31,US,United States,Massachusetts,Cambridge,42.3797,-71.1034,IPv4,2,US,US-MA,Cambridge,MaxMind GeoLite2
136.23.57.62/31,US,United States,Massachusetts,Springfield,42.0986,-72.5931,IPv4,2,US,US-MA,Springfield,MaxMind GeoLite2
136.23.57.64/31,US,United States,Maryland,Gaithersburg,39.1406,-77.1979,IPv4,2,US,US-MD,Gaithersburg,MaxMind GeoLite2
136.23.57.66/31,US,United States,Minnesota,Blaine,45.1654,-93.2463,IPv4,2,US,US-MN,Blaine,MaxMind GeoLite2
136.23.57.68/31,US,United States,Minnesota,Eagan,44.8,-93.1603,IPv4,2,US,US-MN,Eagan,MaxMind GeoLite2
136.23.57.70/31,US,United States,North Carolina,Winston-Salem,36.0976,-80.2365,IPv4,2,US,US-NC,Winston-Salem,MaxMind GeoLite2
136.23.57.72/31,US,United States,New Jersey,Jersey City,40.7308,-74.0789,IPv4,2,US,US-NJ,Jersey City,MaxMind GeoLite2
136.23.57.74/31,US,United States,New Jersey,Newark,40.7399,-74.1691,IPv4,2,US,US-NJ,Newark,MaxMind GeoLite2
136.23.57.76/31,US,United States,Ohio,Strongsville,41.3187,-81.8318,IPv4,2,US,US-OH,Strongsville,MaxMind GeoLite2
136.23.57.78/31,US,United States,Rhode Island,Providence,41.8268,-71.4142,IPv4,2,US,US-RI,Providence,MaxMind GeoLite2
136.23.57.80/31,US,United States,South Carolina,Greenville,34.8549,-82.3946,IPv4,2,US,US-SC,Greenville,MaxMind GeoLite2
136.23.57.82/31,US,United States,Tennessee,Chattanooga,35.0454,-85.3089,IPv4,2,US,US-TN,Chattanooga,MaxMind GeoLite2
136.23.57.84/31,US,United States,Virginia,Arlington,38.884,-77.1054,IPv4,2,US,US-VA,Arlington,MaxMind GeoLite2
136.23.57.86/31,US,United States,Virginia,Burke,38.7921,-77.2803,IPv4,2,US,US-VA,Burke,MaxMind GeoLite2
136.23.57.88/31,US,United States,Virginia,Roanoke,37.2681,-79.9404,IPv4,2,US,US-VA,Roanoke,MaxMind GeoLite2
136.23.57.90/31,US,United States,Virginia,Sandston,37.5235,-77.3158,IPv4,2,US,US-VA,Sandston,MaxMind GeoLite2
136.23.57.92/31,US,United States,Vermont,Burlington,44.4829,-73.2253,IPv4,2,US,US-VT,Burlington,MaxMind GeoLite2
136.23.57.94/32,US,United States,Connecticut,Bloomfield,41.8304,-72.7199,IPv4,1,US,US-CT,Bloomfield,MaxMind GeoLite2
136.23.57.95/32,US,United States,Connecticut,Danbury,41.3973,-73.4527,IPv4,1,US,US-CT,Danbury,MaxMind GeoLite2
136.23.57.96/32,US,United States,Connecticut,Manchester,41.776,-72.5283,IPv4,1,US,US-CT,Manchester,MaxMind GeoLite2
136.23.57.97/32,US,United States,Connecticut,New Britain,41.668,-72.7802,IPv4,1,US,US-CT,New Britain,MaxMind GeoLite2
136.23.57.98/32,US,United States,Connecticut,Norwich,41.5312,-72.0875,IPv4,1,US,US-CT,Norwich,MaxMind GeoLite2
136.23.57.99/32,US,United States,Connecticut,Waterbury,41.5577,-73.0547,IPv4,1,US,US-CT,Waterbury,MaxMind GeoLite2
136.23.57.100/32,US,United States,Delaware,Dover,39.1599,-75.5196,IPv4,1,US,US-DE,Dover,MaxMind GeoLite2
136.23.57.101/32,US,United States,Delaware,Wilmington,39.7503,-75.5453,IPv4,1,US,US-DE,Wilmington,MaxMind GeoLite2
136.23.57.102/32,US,United States,Indiana,Evansville,37.9689,-87.553,IPv4,1,US,US-IN,Evansville,MaxMind GeoLite2
136.23.57.103/32,US,United States,Massachusetts,Auburn,42.2045,-71.8338,IPv4,1,US,US-MA,Auburn,MaxMind GeoLite2
136.23.57.104/32,US,United States,Massachusetts,Framingham,42.2832,-71.4296,IPv4,1,US,US-MA,Framingham,MaxMind GeoLite2
136.23.57.105/32,US,United States,Massachusetts,Franklin,42.0834,-71.3967,IPv4,1,US,US-MA,Franklin,MaxMind GeoLite2
136.23.57.106/32,US,United States,Massachusetts,Leominster,42.5301,-71.7553,IPv4,1,US,US-MA,Leominster,MaxMind GeoLite2
136.23.57.107/32,US,United States,Massachusetts,Lynn,42.4684,-70.9468,IPv4,1,US,US-MA,Lynn,MaxMind GeoLite2
136.23.57.108/32,US,United States,Massachusetts,Medford,42.415,-71.1061,IPv4,1,US,US-MA,Medford,MaxMind GeoLite2
136.23.57.109/32,US,United States,Massachusetts,New Bedford,41.6332,-70.9167,IPv4,1,US,US-MA,New Bedford,MaxMind GeoLite2
136.23.57.110/32,US,United States,Massachusetts,Quincy,42.2573,-70.9985,IPv4,1,US,US-MA,Quincy,MaxMind GeoLite2
136.23.57.111/32,US,United States,Massachusetts,Woburn,42.4806,-71.1562,IPv4,1,US,US-MA,Woburn,MaxMind GeoLite2
136.23.57.112/32,US,United States,Massachusetts,Worcester,42.2624,-71.8011,IPv4,1,US,US-MA,Worcester,MaxMind GeoLite2
136.23.57.113/32,US,United States,Maryland,Bel Air South,39.5066,-76.32,IPv4,1,US,US-MD,Bel Air South,MaxMind GeoLite2
136.23.57.114/32,US,United States,Maryland,Bowie,38.9428,-76.7303,IPv4,1,US,US-MD,Bowie,MaxMind GeoLite2
136.23.57.115/32,US,United States,Maryland,Columbia,39.211,-76.8362,IPv4,1,US,US-MD,Columbia,MaxMind GeoLite2
136.23.57.116/32,US,United States,Maryland,Ellicott City,39.2598,-76.7843,IPv4,1,US,US-MD,Ellicott City,MaxMind GeoLite2
136.23.57.117/32,US,United States,Maryland,Frederick,39.4152,-77.4154,IPv4,1,US,US-MD,Frederick,MaxMind GeoLite2
136.23.57.118/32,US,United States,Maryland,Glen Burnie,39.1658,-76.6382,IPv4,1,US,US-MD,Glen Burnie,MaxMind GeoLite2
136.23.57.119/32,US,United States,Maryland,Owings Mills,39.4224,-76.7763,IPv4,1,US,US-MD,Owings Mills,MaxMind GeoLite2
136.23.57.120/32,US,United States,Maryland,Rockville,39.0784,-77.1587,IPv4,1,US,US-MD,Rockville,MaxMind GeoLite2
136.23.57.121/32,US,United States,Maryland,Saint Charles,38.6032,-76.9386,IPv4,1,US,US-MD,Saint Charles,MaxMind GeoLite2
136.23.57.122/32,US,United States,Maryland,Salisbury,38.3607,-75.5994,IPv4,1,US,US-MD,Salisbury,MaxMind GeoLite2
136.23.57.123/32,US,United States,Maryland,Silver Spring,38.9886,-77.0241,IPv4,1,US,US-MD,Silver Spring,MaxMind GeoLite2
136.23.57.124/32,US,United States,Maryland,Wheaton-Glenmont,39.2909,-76.6096,IPv4,1,US,US-MD,Wheaton-Glenmont,MaxMind GeoLite2
136.23.57.125/32,US,United States,Michigan,Midland,43.6151,-84.2506,IPv4,1,US,US-MI,Midland,MaxMind GeoLite2
136.23.57.126/32,US,United States,Michigan,Traverse City,44.7603,-85.618,IPv4,1,US,US-MI,Traverse City,MaxMind GeoLite2
136.23.57.127/32,US,United States,Minnesota,Bloomington,44.845,-93.3053,IPv4,1,US,US-MN,Bloomington,MaxMind GeoLite2
136.23.57.128/32,US,United States,Minnesota,Brooklyn Park,45.093,-93.3589,IPv4,1,US,US-MN,Brooklyn Park,MaxMind GeoLite2
136.23.57.129/32,US,United States,Minnesota,Eden Prairie,44.8565,-93.4388,IPv4,1,US,US-MN,Eden Prairie,MaxMind GeoLite2
136.23.57.130/32,US,United States,Minnesota,Plymouth,45.0151,-93.4487,IPv4,1,US,US-MN,Plymouth,MaxMind GeoLite2
136.23.57.131/32,US,United States,Minnesota,Saint Paul,44.9411,-93.0949,IPv4,1,US,US-MN,Saint Paul,MaxMind GeoLite2
136.23.57.132/32,US,United States,Minnesota,White Bear Lake,45.0761,-93.0066,IPv4,1,US,US-MN,White Bear Lake,MaxMind GeoLite2
136.23.57.133/32,US,United States,Minnesota,Woodbury,44.9174,-92.9478,IPv4,1,US,US-MN,Woodbury,MaxMind GeoLite2
136.23.57.134/32,US,United States,North Carolina,Asheville,35.5947,-82.5545,IPv4,1,US,US-NC,Asheville,MaxMind GeoLite2
136.23.57.135/32,US,United States,North Carolina,Burlington,36.0957,-79.4378,IPv4,1,US,US-NC,Burlington,MaxMind GeoLite2
136.23.57.136/32,US,United States,North Carolina,Concord,35.4089,-80.5816,IPv4,1,US,US-NC,Concord,MaxMind GeoLite2
136.23.57.137/32,US,United States,North Carolina,Fort Liberty,35.1407,-79.0032,IPv4,1,US,US-NC,Fort Bragg,MaxMind GeoLite2
136.23.57.138/32,US,United States,North Carolina,Greensboro,36.0765,-79.7947,IPv4,1,US,US-NC,Greensboro,MaxMind GeoLite2
136.23.57.139/32,US,United States,North Carolina,High Point,35.9557,-80.0053,IPv4,1,US,US-NC,High Point,MaxMind GeoLite2
136.23.57.140/32,US,United States,North Carolina,Monroe,34.9868,-80.5509,IPv4,1,US,US-NC,Monroe,MaxMind GeoLite2
136.23.57.141/32,US,United States,North Carolina,Wilmington,34.2283,-77.9519,IPv4,1,US,US-NC,Wilmington,MaxMind GeoLite2
136.23.57.142/32,US,United States,New Jersey,Egg Harbor Township,39.3773,-74.6123,IPv4,1,US,US-NJ,Egg Harbor Township,MaxMind GeoLite2
136.23.57.143/32,US,United States,New Jersey,Gloucester Township,40.7399,-74.1691,IPv4,1,US,US-NJ,Gloucester Township,MaxMind GeoLite2
136.23.57.144/32,US,United States,New Jersey,Town of Howell,40.1918,-74.1996,IPv4,1,US,US-NJ,Howell Township,MaxMind GeoLite2
136.23.57.145/32,US,United States,New Jersey,Middletown,40.3909,-74.1153,IPv4,1,US,US-NJ,Middletown Township,MaxMind GeoLite2
136.23.57.146/32,US,United States,New Jersey,Old Bridge,40.4148,-74.3654,IPv4,1,US,US-NJ,Old Bridge,MaxMind GeoLite2
136.23.57.147/32,US,United States,New Jersey,Parsippany-Troy Hills,40.7399,-74.1691,IPv4,1,US,US-NJ,Parsippany-Troy Hills,MaxMind GeoLite2
136.23.57.148/32,US,United States,New Jersey,Paterson,40.9186,-74.1781,IPv4,1,US,US-NJ,Paterson,MaxMind GeoLite2
136.23.57.149/32,US,United States,New Jersey,Piscataway,40.4993,-74.399,IPv4,1,US,US-NJ,Piscataway,MaxMind GeoLite2
136.23.57.150/32,US,United States,New Jersey,Plainfield,40.637,-74.4025,IPv4,1,US,US-NJ,Plainfield,MaxMind GeoLite2
136.23.57.151/32,US,United States,New Jersey,Raritan Township,40.7399,-74.1691,IPv4,1,US,US-NJ,Raritan Township,MaxMind GeoLite2
136.23.57.152/32,US,United States,New Jersey,Toms River,39.9537,-74.1979,IPv4,1,US,US-NJ,Toms River,MaxMind GeoLite2
136.23.57.153/32,US,United States,New Jersey,Trenton,40.2187,-74.7404,IPv4,1,US,US-NJ,Trenton,MaxMind GeoLite2
136.23.57.154/32,US,United States,New Jersey,Union,40.6947,-74.2688,IPv4,1,US,US-NJ,Union,MaxMind GeoLite2
136.23.57.155/32,US,United States,New Jersey,West Orange,40.798,-74.2416,IPv4,1,US,US-NJ,West Orange,MaxMind GeoLite2
136.23.57.156/32,US,United States,New Jersey,West Windsor Township,40.7399,-74.1691,IPv4,1,US,US-NJ,West Windsor Township,MaxMind GeoLite2
136.23.57.157/32,US,United States,New York,Hempstead,40.7052,-73.619,IPv4,1,US,US-NY,Hempstead,MaxMind GeoLite2
136.23.57.158/32,US,United States,New York,Hicksville,40.7684,-73.5254,IPv4,1,US,US-NY,Hicksville,MaxMind GeoLite2
136.23.57.159/32,US,United States,New York,New City,41.1462,-73.9966,IPv4,1,US,US-NY,New City,MaxMind GeoLite2
136.23.57.160/32,US,United States,New York,West Babylon,40.7182,-73.3556,IPv4,1,US,US-NY,West Babylon,MaxMind GeoLite2
136.23.57.161/32,US,United States,New York,Brentwood,40.7801,-73.2458,IPv4,1,US,US-NY,Brentwood,MaxMind GeoLite2
136.23.57.162/32,US,United States,New York,White Plains,41.0326,-73.7621,IPv4,1,US,US-NY,White Plains,MaxMind GeoLite2
136.23.57.163/32,US,United States,New York,Yonkers,40.9286,-73.9,IPv4,1,US,US-NY,Yonkers,MaxMind GeoLite2
136.23.57.164/32,US,United States,Ohio,Akron,41.0793,-81.5229,IPv4,1,US,US-OH,Akron,MaxMind GeoLite2
136.23.57.165/32,US,United States,Ohio,Canton,40.7961,-81.3798,IPv4,1,US,US-OH,Canton,MaxMind GeoLite2
136.23.57.166/32,US,United States,Ohio,Dayton,39.7648,-84.1904,IPv4,1,US,US-OH,Dayton,MaxMind GeoLite2
136.23.57.167/32,US,United States,Ohio,Cuyahoga Falls,41.1353,-81.4817,IPv4,1,US,US-OH,Cuyahoga Falls,MaxMind GeoLite2
136.23.57.168/32,US,United States,Ohio,Kettering,39.6823,-84.1594,IPv4,1,US,US-OH,Kettering,MaxMind GeoLite2
136.23.57.169/32,US,United States,Ohio,Lancaster,39.7184,-82.6073,IPv4,1,US,US-OH,Lancaster,MaxMind GeoLite2
136.23.57.170/32,US,United States,Ohio,Lorain,41.46,-82.1748,IPv4,1,US,US-OH,Lorain,MaxMind GeoLite2
136.23.57.171/32,US,United States,Ohio,New Albany,40.0847,-82.7988,IPv4,1,US,US-OH,New Albany,MaxMind GeoLite2
136.23.57.172/32,US,United States,Ohio,Parma,41.4048,-81.7229,IPv4,1,US,US-OH,Parma,MaxMind GeoLite2
136.23.57.173/32,US,United States,Ohio,Reynoldsburg,39.9581,-82.8068,IPv4,1,US,US-OH,Reynoldsburg,MaxMind GeoLite2
136.23.57.174/32,US,United States,Ohio,Springfield,39.926,-83.8081,IPv4,1,US,US-OH,Springfield,MaxMind GeoLite2
136.23.57.175/32,US,United States,Pennsylvania,Allentown,40.6096,-75.495,IPv4,1,US,US-PA,Allentown,MaxMind GeoLite2
136.23.57.176/32,US,United States,Pennsylvania,Colonial Park,40.2927,-76.817,IPv4,1,US,US-PA,Colonial Park,MaxMind GeoLite2
136.23.57.177/32,US,United States,Pennsylvania,Drexel Hill,39.9526,-75.2937,IPv4,1,US,US-PA,Drexel Hill,MaxMind GeoLite2
136.23.57.178/32,US,United States,Pennsylvania,Erie,42.1297,-80.0846,IPv4,1,US,US-PA,Erie,MaxMind GeoLite2
136.23.57.179/32,US,United States,Pennsylvania,Harrisburg,40.2655,-76.8812,IPv4,1,US,US-PA,Harrisburg,MaxMind GeoLite2
136.23.57.180/32,US,United States,Pennsylvania,Lancaster,40.045,-76.3003,IPv4,1,US,US-PA,Lancaster,MaxMind GeoLite2
136.23.57.181/32,US,United States,Pennsylvania,Lansdale,40.2363,-75.296,IPv4,1,US,US-PA,Lansdale,MaxMind GeoLite2
136.23.57.182/32,US,United States,Pennsylvania,Mechanicsburg,40.2127,-77.0213,IPv4,1,US,US-PA,Mechanicsburg,MaxMind GeoLite2
136.23.57.183/32,US,United States,Pennsylvania,Monroeville,40.4212,-79.7881,IPv4,1,US,US-PA,Monroeville,MaxMind GeoLite2
136.23.57.184/32,US,United States,Pennsylvania,Norristown,40.1215,-75.3269,IPv4,1,US,US-PA,Norristown,MaxMind GeoLite2
136.23.57.185/32,US,United States,Pennsylvania,Reading,40.3362,-75.9153,IPv4,1,US,US-PA,Reading,MaxMind GeoLite2
136.23.57.186/32,US,United States,Pennsylvania,Ross Township,40.5211,-80.0404,IPv4,1,US,US-PA,Ross Township,MaxMind GeoLite2
136.23.57.187/32,US,United States,Pennsylvania,Scranton,41.4115,-75.6694,IPv4,1,US,US-PA,Scranton,MaxMind GeoLite2
136.23.57.188/32,US,United States,Pennsylvania,State College,40.7954,-77.8614,IPv4,1,US,US-PA,State College,MaxMind GeoLite2
136.23.57.189/32,US,United States,Pennsylvania,Stroudsburg,40.9868,-75.1946,IPv4,1,US,US-PA,Stroudsburg,MaxMind GeoLite2
136.23.57.190/32,US,United States,Pennsylvania,West Goshen,39.9659,-75.5788,IPv4,1,US,US-PA,West Goshen,MaxMind GeoLite2
136.23.57.191/32,US,United States,Rhode Island,Warwick,41.6975,-71.4128,IPv4,1,US,US-RI,Warwick,MaxMind GeoLite2
136.23.57.192/32,US,United States,South Carolina,Anderson,34.4993,-82.6575,IPv4,1,US,US-SC,Anderson,MaxMind GeoLite2
136.23.57.193/32,US,United States,South Carolina,Columbia,34.0007,-81.0348,IPv4,1,US,US-SC,Columbia,MaxMind GeoLite2
136.23.57.194/32,US,United States,South Carolina,Myrtle Beach,33.6988,-78.916,IPv4,1,US,US-SC,Myrtle Beach,MaxMind GeoLite2
136.23.57.195/32,US,United States,South Carolina,Rock Hill,34.9151,-81.0129,IPv4,1,US,US-SC,Rock Hill,MaxMind GeoLite2
136.23.57.196/32,US,United States,Tennessee,Johnson City,36.3134,-82.3535,IPv4,1,US,US-TN,Johnson City,MaxMind GeoLite2
136.23.57.197/32,US,United States,Virginia,Alexandria,38.8078,-77.0523,IPv4,1,US,US-VA,Alexandria,MaxMind GeoLite2
136.23.57.198/32,US,United States,Virginia,Charlottesville,38.0271,-78.4797,IPv4,1,US,US-VA,Charlottesville,MaxMind GeoLite2
136.23.57.199/32,US,United States,Virginia,Chesapeake,36.819,-76.2749,IPv4,1,US,US-VA,Chesapeake,MaxMind GeoLite2
136.23.57.200/32,US,United States,Virginia,Fredericksburg,38.3014,-77.4549,IPv4,1,US,US-VA,Fredericksburg,MaxMind GeoLite2
136.23.57.201/32,US,United States,Virginia,McLean,38.9363,-77.1698,IPv4,1,US,US-VA,McLean,MaxMind GeoLite2
136.23.57.202/32,US,United States,Virginia,Newport News,36.9886,-76.4143,IPv4,1,US,US-VA,Newport News,MaxMind GeoLite2
136.23.57.203/32,US,United States,Virginia,Tuckahoe,37.5902,-77.5564,IPv4,1,US,US-VA,Tuckahoe,MaxMind GeoLite2
136.23.57.204/32,US,United States,Virginia,Virginia Beach,36.8566,-75.9832,IPv4,1,US,US-VA,Virginia Beach,MaxMind GeoLite2
136.23.57.205/32,US,United States,Virginia,Washington,38.7095,-78.1539,IPv4,1,US,US-VA,Washington,MaxMind GeoLite2
136.23.57.206/32,US,United States,West Virginia,Huntington,38.425,-82.4469,IPv4,1,US,US-WV,Huntington,MaxMind GeoLite2
136.23.57.207/32,US,United States,West Virginia,Morgantown,39.6302,-79.9606,IPv4,1,US,US-WV,Morgantown,MaxMind GeoLite2
136.23.57.208/29,US,United States,Massachusetts,Boston,42.3602,-71.0594,IPv4,8,US,US-MA,Boston,MaxMind GeoLite2
136.23.57.216/31,US,United States,New Jersey,Newark,40.7399,-74.1691,IPv4,2,US,US-NJ,Newark,MaxMind GeoLite2
136.23.57.218/32,US,United States,Ohio,Huber Heights,39.8378,-84.1111,IPv4,1,US,US-OH,Huber Heights,MaxMind GeoLite2
136.23.57.219/32,US,United States,North Carolina,Cary,35.7965,-78.7981,IPv4,1,US,US-NC,Cary,MaxMind GeoLite2
136.23.57.220/32,US,United States,Virginia,Roanoke,37.2681,-79.9404,IPv4,1,US,US-VA,Roanoke,MaxMind GeoLite2
136.23.57.221/32,US,United States,Michigan,Flint,43.0128,-83.6967,IPv4,1,US,US-MI,Flint,MaxMind GeoLite2
136.23.57.222/32,US,United States,Ohio,Youngstown,41.0989,-80.6558,IPv4,1,US,US-OH,Youngstown,MaxMind GeoLite2
136.23.57.223/32,US,United States,Maryland,Annapolis,38.9747,-76.4932,IPv4,1,US,US-MD,Annapolis,MaxMind GeoLite2
136.23.57.224/32,US,United States,North Carolina,Greenville,35.6127,-77.3663,IPv4,1,US,US-NC,Greenville,MaxMind GeoLite2
136.23.57.225/32,US,United States,New York,Levittown,40.7279,-73.5118,IPv4,1,US,US-NY,Levittown,MaxMind GeoLite2
136.23.57.226/32,US,United States,North Carolina,Raleigh,35.7704,-78.6293,IPv4,1,US,US-NC,Raleigh,MaxMind GeoLite2
136.23.57.227/32,US,United States,Minnesota,Eden Prairie,44.8565,-93.4388,IPv4,1,US,US-MN,Eden Prairie,MaxMind GeoLite2
136.23.57.228/32,US,United States,Ohio,Mentor,41.6581,-81.3378,IPv4,1,US,US-OH,Mentor,MaxMind GeoLite2
136.23.57.229/32,US,United States,Massachusetts,Plymouth,41.961,-70.664,IPv4,1,US,US-MA,Plymouth,MaxMind GeoLite2
136.23.57.230/32,US,United States,Indiana,Columbus,39.1988,-85.9253,IPv4,1,US,US-IN,Columbus,MaxMind GeoLite2
136.23.57.231/32,US,United States,Massachusetts,Cambridge,42.3797,-71.1034,IPv4,1,US,US-MA,Cambridge,MaxMind GeoLite2
136.23.57.232/32,US,United States,New Jersey,Edison,40.5237,-74.4151,IPv4,1,US,US-NJ,Edison,MaxMind GeoLite2
136.23.57.233/32,US,United States,North Carolina,Franklin,35.1829,-83.3865,IPv4,1,US,US-NC,Franklin,MaxMind GeoLite2
136.23.57.234/32,US,United States,North Carolina,Hickory,35.7589,-81.3263,IPv4,1,US,US-NC,Hickory,MaxMind GeoLite2
136.23.57.235/32,US,United States,Virginia,Virginia Beach,36.8566,-75.9832,IPv4,1,US,US-VA,Virginia Beach,MaxMind GeoLite2
136.23.57.236/32,US,United States,Virginia,Norfolk,36.8429,-76.2864,IPv4,1,US,US-VA,Norfolk,MaxMind GeoLite2
136.23.57.237/32,US,United States,New York,Poughkeepsie,41.7017,-73.9078,IPv4,1,US,US-NY,Poughkeepsie,MaxMind GeoLite2
136.23.58.0/25,US,United States,,,37.751,-97.822,IPv4,128,US,,,MaxMind GeoLite2
136.23.58.192/31,US,United States,Colorado,Boulder,40.0128,-105.2759,IPv4,2,US,US-CO,Boulder,MaxMind GeoLite2
136.23.58.194/31,US,United States,Alabama,Huntsville,34.7281,-86.5878,IPv4,2,US,US-AL,Huntsville,MaxMind GeoLite2
136.23.58.196/30,US,United States,Colorado,Colorado Springs,38.8374,-104.8225,IPv4,4,US,US-CO,Colorado Springs,MaxMind GeoLite2
136.23.58.200/29,US,United States,Missouri,Kansas City,39.1027,-94.5778,IPv4,8,US,US-MO,Kansas City,MaxMind GeoLite2
136.23.58.208/28,US,United States,Colorado,Denver,39.7391,-104.9866,IPv4,16,US,US-CO,Denver,MaxMind GeoLite2
136.23.58.224/27,US,United States,Texas,Dallas,32.7797,-96.8022,IPv4,32,US,US-TX,Dallas,MaxMind GeoLite2
136.23.59.0/25,US,United States,Illinois,Chicago,41.8483,-87.6517,IPv4,128,US,US-IL,Chicago,MaxMind GeoLite2
136.23.59.128/27,US,United States,Georgia,Atlanta,33.7485,-84.3871,IPv4,32,US,US-GA,Atlanta,MaxMind GeoLite2
136.23.59.160/28,US,United States,Texas,Houston,29.7646,-95.3657,IPv4,16,US,US-TX,Houston,MaxMind GeoLite2
136.23.59.176/28,US,United States,Texas,Austin,30.2625,-97.7463,IPv4,16,US,US-TX,Austin,MaxMind GeoLite2
136.23.59.192/29,US,United States,Tennessee,Nashville,36.1671,-86.7861,IPv4,8,US,US-TN,Nashville,MaxMind GeoLite2
136.23.59.200/29,CA,Canada,Manitoba,Winnipeg,49.884,-97.1288,IPv4,8,CA,CA-MB,Winnipeg,MaxMind GeoLite2
136.23.59.208/29,US,United States,Indiana,Indpls,39.7684,-86.158,IPv4,8,US,US-IN,Indianapolis,MaxMind GeoLite2
136.23.59.216/29,US,United States,Texas,San Antonio,29.4227,-98.4927,IPv4,8,US,US-TX,San Antonio,MaxMind GeoLite2
136.23.59.224/29,US,United States,Nebraska,Omaha,41.2612,-95.9354,IPv4,8,US,US-NE,Omaha,MaxMind GeoLite2
136.23.59.232/29,US,United States,Texas,Fort Worth,32.7254,-97.3208,IPv4,8,US,US-TX,Fort Worth,MaxMind GeoLite2
136.23.59.240/30,US,United States,Missouri,St Louis,38.6287,-90.1988,IPv4,4,US,US-MO,St. Louis,MaxMind GeoLite2
136.23.59.244/30,US,United States,New Mexico,Albuquerque,35.0781,-106.6583,IPv4,4,US,US-NM,Albuquerque,MaxMind GeoLite2
136.23.59.248/30,US,United States,Oklahoma,Oklahoma City,35.4662,-97.5168,IPv4,4,US,US-OK,Oklahoma City,MaxMind GeoLite2
136.23.59.252/30,US,United States,Wisconsin,Milwaukee,43.0382,-87.91,IPv4,4,US,US-WI,Milwaukee,MaxMind GeoLite2
136.23.62.0/25,US,United States,Illinois,Chicago,41.8483,-87.6517,IPv4,128,US,US-IL,Chicago,MaxMind GeoLite2
136.23.62.128/28,US,United States,Michigan,Detroit,42.3318,-83.0465,IPv4,16,US,US-MI,Detroit,MaxMind GeoLite2
136.23.62.144/28,CA,Canada,Alberta,Edmonton,53.5521,-113.4685,IPv4,16,CA,CA-AB,Edmonton,MaxMind GeoLite2
136.23.62.160/29,CA,Canada,Manitoba,Winnipeg,49.884,-97.1288,IPv4,8,CA,CA-MB,Winnipeg,MaxMind GeoLite2
136.23.62.168/29,US,United States,Indiana,Indpls,39.7684,-86.158,IPv4,8,US,US-IN,Indianapolis,MaxMind GeoLite2
136.23.62.176/29,US,United States,Texas,San Antonio,29.4227,-98.4927,IPv4,8,US,US-TX,San Antonio,MaxMind GeoLite2
136.23.62.184/29,US,United States,Kentucky,Louisville,38.2539,-85.76,IPv4,8,US,US-KY,Louisville,MaxMind GeoLite2
136.23.62.192/29,US,United States,Nebraska,Omaha,41.2612,-95.9354,IPv4,8,US,US-NE,Omaha,MaxMind GeoLite2
136.23.62.200/29,US,United States,Ohio,Columbus,39.9587,-82.9987,IPv4,8,US,US-OH,Columbus,MaxMind GeoLite2
136.23.62.208/30,CA,Canada,Saskatchewan,Saskatoon,52.1344,-106.6537,IPv4,4,CA,CA-SK,Saskatoon,MaxMind GeoLite2
136.23.62.212/30,US,United States,Missouri,St Louis,38.6287,-90.1988,IPv4,4,US,US-MO,St. Louis,MaxMind GeoLite2
136.23.62.216/30,US,United States,New York,Syracuse,43.0483,-76.1468,IPv4,4,US,US-NY,Syracuse,MaxMind GeoLite2
136.23.62.220/30,US,United States,Wisconsin,Milwaukee,43.0382,-87.91,IPv4,4,US,US-WI,Milwaukee,MaxMind GeoLite2
136.23.62.224/30,US,United States,Kansas,Kansas City,39.1139,-94.6254,IPv4,4,US,US-KS,Kansas City,MaxMind GeoLite2
136.23.62.228/30,US,United States,Ohio,Cincinnati,39.1256,-84.5127,IPv4,4,US,US-OH,Cincinnati,MaxMind GeoLite2
136.23.62.232/30,US,United States,Wisconsin,Madison,43.0773,-89.3994,IPv4,4,US,US-WI,Madison,MaxMind GeoLite2
136.23.62.236/31,US,United States,Iowa,Cedar Rapids,42.0182,-91.6468,IPv4,2,US,US-IA,Cedar Rapids,MaxMind GeoLite2
136.23.62.238/31,US,United States,Illinois,Peoria,40.6887,-89.5857,IPv4,2,US,US-IL,Peoria,MaxMind GeoLite2
136.23.62.240/31,US,United States,Kansas,Wichita,37.6901,-97.3404,IPv4,2,US,US-KS,Wichita,MaxMind GeoLite2
136.23.62.242/31,US,United States,Kentucky,Lexington,37.9874,-84.4804,IPv4,2,US,US-KY,Lexington,MaxMind GeoLite2
136.23.62.244/31,US,United States,Michigan,Grand Rapids,42.9638,-85.6665,IPv4,2,US,US-MI,Grand Rapids,MaxMind GeoLite2
136.23.62.246/31,US,United States,Michigan,Ann Arbor,42.2804,-83.7325,IPv4,2,US,US-MI,Ann Arbor,MaxMind GeoLite2
136.23.62.248/31,US,United States,Minnesota,Blaine,45.1654,-93.2463,IPv4,2,US,US-MN,Blaine,MaxMind GeoLite2
136.23.62.250/31,US,United States,Minnesota,Eagan,44.8,-93.1603,IPv4,2,US,US-MN,Eagan,MaxMind GeoLite2
136.23.62.252/31,US,United States,North Dakota,Fargo,46.8796,-96.7814,IPv4,2,US,US-ND,Fargo,MaxMind GeoLite2
136.23.62.254/31,US,United States,Nebraska,Lincoln,40.8105,-96.6646,IPv4,2,US,US-NE,Lincoln,MaxMind GeoLite2
136.23.63.0/31,US,United States,New York,Albany,42.6517,-73.7559,IPv4,2,US,US-NY,Albany,MaxMind GeoLite2
136.23.63.2/31,US,United States,New York,Troy,42.7298,-73.6959,IPv4,2,US,US-NY,Troy,MaxMind GeoLite2
136.23.63.4/31,US,United States,Ohio,Strongsville,41.3187,-81.8318,IPv4,2,US,US-OH,Strongsville,MaxMind GeoLite2
136.23.63.6/31,US,United States,Ohio,Toledo,41.6692,-83.5519,IPv4,2,US,US-OH,Toledo,MaxMind GeoLite2
136.23.63.8/31,US,United States,South Dakota,Sioux Falls,43.547,-96.7244,IPv4,2,US,US-SD,Sioux Falls,MaxMind GeoLite2
136.23.63.10/31,US,United States,Texas,Brownsville,25.8989,-97.4987,IPv4,2,US,US-TX,Brownsville,MaxMind GeoLite2
136.23.63.12/31,US,United States,Wisconsin,Appleton,44.253,-88.4132,IPv4,2,US,US-WI,Appleton,MaxMind GeoLite2
136.23.63.14/32,CA,Canada,British Columbia,Creston,49.0999,-116.5021,IPv4,1,CA,CA-BC,Creston,MaxMind GeoLite2
136.23.63.15/32,US,United States,Arkansas,Little Rock,34.7448,-92.2883,IPv4,1,US,US-AR,Little Rock,MaxMind GeoLite2
136.23.63.16/32,US,United States,Iowa,Ames,42.0244,-93.6312,IPv4,1,US,US-IA,Ames,MaxMind GeoLite2
136.23.63.17/32,US,United States,Iowa,Davenport,41.5171,-90.574,IPv4,1,US,US-IA,Davenport,MaxMind GeoLite2
136.23.63.18/32,US,United States,Iowa,Des Moines,41.6015,-93.6127,IPv4,1,US,US-IA,Des Moines,MaxMind GeoLite2
136.23.63.19/32,US,United States,Iowa,West Des Moines,41.5772,-93.7113,IPv4,1,US,US-IA,West Des Moines,MaxMind GeoLite2
136.23.63.20/32,US,United States,Illinois,Arlington Heights,42.0839,-87.9775,IPv4,1,US,US-IL,Arlington Heights,MaxMind GeoLite2
136.23.63.21/32,US,United States,Illinois,Aurora,41.7572,-88.3177,IPv4,1,US,US-IL,Aurora,MaxMind GeoLite2
136.23.63.22/32,US,United States,Illinois,Belleville,38.5136,-89.9842,IPv4,1,US,US-IL,Belleville,MaxMind GeoLite2
136.23.63.23/32,US,United States,Illinois,Champaign,40.1171,-88.2482,IPv4,1,US,US-IL,Champaign,MaxMind GeoLite2
136.23.63.24/32,US,United States,Illinois,Downers Grove,41.7996,-88.0066,IPv4,1,US,US-IL,Downers Grove,MaxMind GeoLite2
136.23.63.25/32,US,United States,Illinois,Elgin,42.0365,-88.2855,IPv4,1,US,US-IL,Elgin,MaxMind GeoLite2
136.23.63.26/32,US,United States,Illinois,Naperville,41.7803,-88.1484,IPv4,1,US,US-IL,Naperville,MaxMind GeoLite2
136.23.63.27/32,US,United States,Illinois,Palatine,42.112,-88.0353,IPv4,1,US,US-IL,Palatine,MaxMind GeoLite2
136.23.63.28/32,US,United States,Illinois,Round Lake Beach,42.3667,-88.0925,IPv4,1,US,US-IL,Round Lake Beach,MaxMind GeoLite2
136.23.63.29/32,US,United States,Illinois,Schaumburg,42.0317,-88.0833,IPv4,1,US,US-IL,Schaumburg,MaxMind GeoLite2
136.23.63.30/32,US,United States,Illinois,Springfield,39.8032,-89.6485,IPv4,1,US,US-IL,Springfield,MaxMind GeoLite2
136.23.63.31/32,US,United States,Illinois,West Chicago,41.8812,-88.2059,IPv4,1,US,US-IL,West Chicago,MaxMind GeoLite2
136.23.63.32/32,US,United States,Indiana,Bloomington,39.171,-86.5219,IPv4,1,US,US-IN,Bloomington,MaxMind GeoLite2
136.23.63.33/32,US,United States,Indiana,Evansville,37.9689,-87.553,IPv4,1,US,US-IN,Evansville,MaxMind GeoLite2
136.23.63.34/32,US,United States,Indiana,Fishers,39.9549,-86.0184,IPv4,1,US,US-IN,Fishers,MaxMind GeoLite2
136.23.63.35/32,US,United States,Indiana,Fort Wayne,41.1306,-85.1289,IPv4,1,US,US-IN,Fort Wayne,MaxMind GeoLite2
136.23.63.36/32,US,United States,Indiana,Noblesville,40.0555,-86.0157,IPv4,1,US,US-IN,Noblesville,MaxMind GeoLite2
136.23.63.37/32,US,United States,Indiana,South Bend,41.6844,-86.2466,IPv4,1,US,US-IN,South Bend,MaxMind GeoLite2
136.23.63.38/32,US,United States,Kansas,Topeka,39.0442,-95.6822,IPv4,1,US,US-KS,Topeka,MaxMind GeoLite2
136.23.63.39/32,US,United States,Michigan,Canton,42.3087,-83.4822,IPv4,1,US,US-MI,Canton,MaxMind GeoLite2
136.23.63.40/32,US,United States,Michigan,Clinton Township,42.588,-82.9223,IPv4,1,US,US-MI,Clinton Township,MaxMind GeoLite2
136.23.63.41/32,US,United States,Michigan,Holland,42.7917,-86.1177,IPv4,1,US,US-MI,Holland,MaxMind GeoLite2
136.23.63.42/32,US,United States,Michigan,Kalamazoo,42.2902,-85.5864,IPv4,1,US,US-MI,Kalamazoo,MaxMind GeoLite2
136.23.63.43/32,US,United States,Michigan,Lansing,42.7293,-84.5548,IPv4,1,US,US-MI,Lansing,MaxMind GeoLite2
136.23.63.44/32,US,United States,Michigan,Midland,43.6151,-84.2506,IPv4,1,US,US-MI,Midland,MaxMind GeoLite2
136.23.63.45/32,US,United States,Michigan,Novi,42.4777,-83.4759,IPv4,1,US,US-MI,Novi,MaxMind GeoLite2
136.23.63.46/32,US,United States,Michigan,Southfield,42.4734,-83.2212,IPv4,1,US,US-MI,Southfield,MaxMind GeoLite2
136.23.63.47/32,US,United States,Michigan,Sterling Heights,42.5787,-83.0327,IPv4,1,US,US-MI,Sterling Heights,MaxMind GeoLite2
136.23.63.48/32,US,United States,Michigan,Traverse City,44.7603,-85.618,IPv4,1,US,US-MI,Traverse City,MaxMind GeoLite2
136.23.63.49/32,US,United States,Michigan,Troy,42.6013,-83.178,IPv4,1,US,US-MI,Troy,MaxMind GeoLite2
136.23.63.50/32,US,United States,Michigan,Wyoming,42.9178,-85.6995,IPv4,1,US,US-MI,Wyoming,MaxMind GeoLite2
136.23.63.51/32,US,United States,Minnesota,Bloomington,44.845,-93.3053,IPv4,1,US,US-MN,Bloomington,MaxMind GeoLite2
136.23.63.52/32,US,United States,Minnesota,Brooklyn Park,45.093,-93.3589,IPv4,1,US,US-MN,Brooklyn Park,MaxMind GeoLite2
136.23.63.53/32,US,United States,Minnesota,Eden Prairie,44.8565,-93.4388,IPv4,1,US,US-MN,Eden Prairie,MaxMind GeoLite2
136.23.63.54/32,US,United States,Minnesota,Plymouth,45.0151,-93.4487,IPv4,1,US,US-MN,Plymouth,MaxMind GeoLite2
136.23.63.55/32,US,United States,Minnesota,Rochester,44.0148,-92.4636,IPv4,1,US,US-MN,Rochester,MaxMind GeoLite2
136.23.63.56/32,US,United States,Minnesota,Saint Cloud,45.5639,-94.1589,IPv4,1,US,US-MN,St. Cloud,MaxMind GeoLite2
136.23.63.57/32,US,United States,Minnesota,Saint Paul,44.9411,-93.0949,IPv4,1,US,US-MN,Saint Paul,MaxMind GeoLite2
136.23.63.58/32,US,United States,Minnesota,White Bear Lake,45.0761,-93.0066,IPv4,1,US,US-MN,White Bear Lake,MaxMind GeoLite2
136.23.63.59/32,US,United States,Minnesota,Woodbury,44.9174,-92.9478,IPv4,1,US,US-MN,Woodbury,MaxMind GeoLite2
136.23.63.60/32,US,United States,Missouri,Arnold,38.4321,-90.3896,IPv4,1,US,US-MO,Arnold,MaxMind GeoLite2
136.23.63.61/32,US,United States,Missouri,Columbia,38.9489,-92.3371,IPv4,1,US,US-MO,Columbia,MaxMind GeoLite2
136.23.63.62/32,US,United States,Missouri,Independence,39.0932,-94.4109,IPv4,1,US,US-MO,Independence,MaxMind GeoLite2
136.23.63.63/32,US,United States,Missouri,Joplin,37.0885,-94.5069,IPv4,1,US,US-MO,Joplin,MaxMind GeoLite2
136.23.63.64/32,US,United States,Missouri,Lee's Summit,38.9051,-94.3843,IPv4,1,US,US-MO,Lee's Summit,MaxMind GeoLite2
136.23.63.65/32,US,United States,Missouri,O'Fallon,38.8135,-90.6961,IPv4,1,US,US-MO,O'Fallon,MaxMind GeoLite2
136.23.63.66/32,US,United States,Missouri,Springfield,37.2117,-93.299,IPv4,1,US,US-MO,Springfield,MaxMind GeoLite2
136.23.63.67/32,US,United States,Nebraska,Springfield,41.0765,-96.1438,IPv4,1,US,US-NE,Springfield,MaxMind GeoLite2
136.23.63.68/32,US,United States,New York,Binghamton,42.0944,-75.9034,IPv4,1,US,US-NY,Binghamton,MaxMind GeoLite2
136.23.63.69/32,US,United States,New York,Brighton,43.1442,-77.5503,IPv4,1,US,US-NY,Brighton,MaxMind GeoLite2
136.23.63.70/32,US,United States,New York,Rochester,43.1567,-77.6107,IPv4,1,US,US-NY,Rochester,MaxMind GeoLite2
136.23.63.71/32,US,United States,New York,Schenectady,42.8107,-73.933,IPv4,1,US,US-NY,Schenectady,MaxMind GeoLite2
136.23.63.72/32,US,United States,New York,Utica,43.0982,-75.2319,IPv4,1,US,US-NY,Utica,MaxMind GeoLite2
136.23.63.73/32,US,United States,Ohio,Akron,41.0793,-81.5229,IPv4,1,US,US-OH,Akron,MaxMind GeoLite2
136.23.63.74/32,US,United States,Ohio,Canton,40.7961,-81.3798,IPv4,1,US,US-OH,Canton,MaxMind GeoLite2
136.23.63.75/32,US,United States,Ohio,Dayton,39.7648,-84.1904,IPv4,1,US,US-OH,Dayton,MaxMind GeoLite2
136.23.63.76/32,US,United States,Ohio,Cuyahoga Falls,41.1353,-81.4817,IPv4,1,US,US-OH,Cuyahoga Falls,MaxMind GeoLite2
136.23.63.77/32,US,United States,Ohio,Euclid,41.6018,-81.5257,IPv4,1,US,US-OH,Euclid,MaxMind GeoLite2
136.23.63.78/32,US,United States,Ohio,Kettering,39.6823,-84.1594,IPv4,1,US,US-OH,Kettering,MaxMind GeoLite2
136.23.63.79/32,US,United States,Ohio,Lancaster,39.7184,-82.6073,IPv4,1,US,US-OH,Lancaster,MaxMind GeoLite2
136.23.63.80/32,US,United States,Ohio,Lorain,41.46,-82.1748,IPv4,1,US,US-OH,Lorain,MaxMind GeoLite2
136.23.63.81/32,US,United States,Ohio,Mason,39.3601,-84.3099,IPv4,1,US,US-OH,Mason,MaxMind GeoLite2
136.23.63.82/32,US,United States,Ohio,New Albany,40.0847,-82.7988,IPv4,1,US,US-OH,New Albany,MaxMind GeoLite2
136.23.63.83/32,US,United States,Ohio,Parma,41.4048,-81.7229,IPv4,1,US,US-OH,Parma,MaxMind GeoLite2
136.23.63.84/32,US,United States,Ohio,Reynoldsburg,39.9581,-82.8068,IPv4,1,US,US-OH,Reynoldsburg,MaxMind GeoLite2
136.23.63.85/32,US,United States,Ohio,Springfield,39.926,-83.8081,IPv4,1,US,US-OH,Springfield,MaxMind GeoLite2
136.23.63.86/32,US,United States,Pennsylvania,Erie,42.1297,-80.0846,IPv4,1,US,US-PA,Erie,MaxMind GeoLite2
136.23.63.87/32,US,United States,Tennessee,Bristol,36.5933,-82.1873,IPv4,1,US,US-TN,Bristol,MaxMind GeoLite2
136.23.63.88/32,US,United States,Tennessee,Clarksville,36.5314,-87.3583,IPv4,1,US,US-TN,Clarksville,MaxMind GeoLite2
136.23.63.89/32,US,United States,Texas,Beaumont,30.082,-94.1028,IPv4,1,US,US-TX,Beaumont,MaxMind GeoLite2
136.23.63.90/32,US,United States,Texas,Waco,31.553,-97.1421,IPv4,1,US,US-TX,Waco,MaxMind GeoLite2
136.23.63.91/32,US,United States,Wisconsin,Green Bay,44.517,-88.0176,IPv4,1,US,US-WI,Green Bay,MaxMind GeoLite2
136.23.63.92/32,US,United States,Wisconsin,La Crosse,43.8014,-91.2396,IPv4,1,US,US-WI,La Crosse,MaxMind GeoLite2
136.23.63.93/32,US,United States,Wisconsin,Sun Prairie,43.1899,-89.2185,IPv4,1,US,US-WI,Sun Prairie,MaxMind GeoLite2
136.23.63.94/32,US,United States,Wisconsin,Waukesha,43.0164,-88.2271,IPv4,1,US,US-WI,Waukesha,MaxMind GeoLite2
136.23.63.95/32,US,United States,Wisconsin,Wausau,44.9656,-89.7066,IPv4,1,US,US-WI,Wausau,MaxMind GeoLite2
136.23.63.96/32,US,United States,Wisconsin,West Allis,43.0184,-88.0157,IPv4,1,US,US-WI,West Allis,MaxMind GeoLite2
136.23.63.97/32,US,United States,West Virginia,Huntington,38.425,-82.4469,IPv4,1,US,US-WV,Huntington,MaxMind GeoLite2
136.23.63.98/32,US,United States,Indiana,Noblesville,40.0555,-86.0157,IPv4,1,US,US-IN,Noblesville,MaxMind GeoLite2
136.23.63.99/32,US,United States,Michigan,Ann Arbor,42.2804,-83.7325,IPv4,1,US,US-MI,Ann Arbor,MaxMind GeoLite2
136.23.63.100/32,US,United States,Indiana,Fort Wayne,41.1306,-85.1289,IPv4,1,US,US-IN,Fort Wayne,MaxMind GeoLite2
136.23.63.101/32,US,United States,Ohio,Huber Heights,39.8378,-84.1111,IPv4,1,US,US-OH,Huber Heights,MaxMind GeoLite2
136.23.63.102/32,US,United States,New York,Rochester,43.1567,-77.6107,IPv4,1,US,US-NY,Rochester,MaxMind GeoLite2
136.23.63.103/32,US,United States,Michigan,Flint,43.0128,-83.6967,IPv4,1,US,US-MI,Flint,MaxMind GeoLite2
136.23.63.104/32,US,United States,Ohio,Youngstown,41.0989,-80.6558,IPv4,1,US,US-OH,Youngstown,MaxMind GeoLite2
136.23.63.105/32,US,United States,Michigan,Livonia,42.3625,-83.3447,IPv4,1,US,US-MI,Livonia,MaxMind GeoLite2
136.23.63.106/32,US,United States,Arkansas,Little Rock,34.7448,-92.2883,IPv4,1,US,US-AR,Little Rock,MaxMind GeoLite2
136.23.63.107/32,US,United States,Illinois,Elmhurst,41.8957,-87.9435,IPv4,1,US,US-IL,Elmhurst,MaxMind GeoLite2
136.23.63.108/32,US,United States,Kansas,Topeka,39.0442,-95.6822,IPv4,1,US,US-KS,Topeka,MaxMind GeoLite2
136.23.63.109/32,US,United States,Minnesota,Duluth,46.7769,-92.1003,IPv4,1,US,US-MN,Duluth,MaxMind GeoLite2
136.23.63.110/32,US,United States,Wisconsin,Janesville,42.6713,-89.007,IPv4,1,US,US-WI,Janesville,MaxMind GeoLite2
136.23.63.111/32,US,United States,Missouri,Nixa,37.0504,-93.3002,IPv4,1,US,US-MO,Nixa,MaxMind GeoLite2
136.23.63.112/32,US,United States,Indiana,Bloomington,39.171,-86.5219,IPv4,1,US,US-IN,Bloomington,MaxMind GeoLite2
136.23.63.113/32,US,United States,Minnesota,Eden Prairie,44.8565,-93.4388,IPv4,1,US,US-MN,Eden Prairie,MaxMind GeoLite2
136.23.63.114/32,US,United States,Wisconsin,Sheboygan,43.7409,-87.7298,IPv4,1,US,US-WI,Sheboygan,MaxMind GeoLite2
136.23.63.115/32,US,United States,Ohio,Mentor,41.6581,-81.3378,IPv4,1,US,US-OH,Mentor,MaxMind GeoLite2
136.23.63.116/32,US,United States,Indiana,Columbus,39.1988,-85.9253,IPv4,1,US,US-IN,Columbus,MaxMind GeoLite2
136.23.63.117/32,US,United States,Illinois,Rockford,42.2672,-89.095,IPv4,1,US,US-IL,Rockford,MaxMind GeoLite2
136.23.63.118/32,US,United States,Missouri,Cape Girardeau,37.3022,-89.5161,IPv4,1,US,US-MO,Cape Girardeau,MaxMind GeoLite2
136.23.63.119/32,US,United States,Iowa,Iowa City,41.6594,-91.5265,IPv4,1,US,US-IA,Iowa City,MaxMind GeoLite2
136.23.63.120/32,US,United States,Michigan,Taylor,42.238,-83.2807,IPv4,1,US,US-MI,Taylor,MaxMind GeoLite2
136.23.63.121/32,US,United States,Michigan,Grand Rapids,42.9638,-85.6665,IPv4,1,US,US-MI,Grand Rapids,MaxMind GeoLite2
136.23.63.122/32,US,United States,Wisconsin,Eau Claire,44.8093,-91.5013,IPv4,1,US,US-WI,Eau Claire,MaxMind GeoLite2
136.23.63.123/32,CA,Canada,Alberta,Calgary,51.05,-114.0879,IPv4,1,CA,CA-AB,Calgary,MaxMind GeoLite2
136.23.63.124/32,US,United States,Wisconsin,Milwaukee,43.0382,-87.91,IPv4,1,US,US-WI,Milwaukee,MaxMind GeoLite2
136.23.63.125/32,IL,Israel,,,31.5,34.75,IPv4,1,IL,,,MaxMind GeoLite2
136.23.63.126/32,US,United States,Kansas,Olathe,38.8868,-94.8223,IPv4,1,US,US-KS,Olathe,MaxMind GeoLite2
136.23.63.127/32,US,United States,Illinois,Joliet,41.5259,-88.0865,IPv4,1,US,US-IL,Joliet,MaxMind GeoLite2
136.23.63.128/25,US,United States,,,37.751,-97.822,IPv4,128,US,,,MaxMind GeoLite2
162.120.192.96/32,US,United States,,,37.751,-97.822,IPv4,1,US,,,MaxMind GeoLite2
162.120.192.97/32,US,United States,Colorado,Arvada,39.8034,-105.0954,IPv4,1,US,US-CO,Arvada,MaxMind GeoLite2
162.120.192.98/32,US,United States,Colorado,Aurora,39.7343,-104.8262,IPv4,1,US,US-CO,Aurora,MaxMind GeoLite2
162.120.192.99/32,US,United States,Colorado,Boulder,40.0128,-105.2759,IPv4,1,US,US-CO,Boulder,MaxMind GeoLite2
162.120.192.100/32,US,United States,Colorado,Centennial,39.5792,-104.8769,IPv4,1,US,US-CO,Centennial,MaxMind GeoLite2
162.120.192.101/32,US,United States,Colorado,Colorado Springs,38.8374,-104.8225,IPv4,1,US,US-CO,Colorado Springs,MaxMind GeoLite2
162.120.192.102/32,US,United States,Colorado,Denver,39.7391,-104.9866,IPv4,1,US,US-CO,Denver,MaxMind GeoLite2
162.120.192.103/32,US,United States,Colorado,Evergreen,39.6374,-105.3402,IPv4,1,US,US-CO,Evergreen,MaxMind GeoLite2
162.120.192.104/32,US,United States,Colorado,Fort Collins,40.5766,-105.0809,IPv4,1,US,US-CO,Fort Collins,MaxMind GeoLite2
162.120.192.105/32,US,United States,Colorado,Grand Junction,39.074,-108.5449,IPv4,1,US,US-CO,Grand Junction,MaxMind GeoLite2
162.120.192.106/32,US,United States,Colorado,Ken Caryl,39.5727,-105.1112,IPv4,1,US,US-CO,Ken Caryl,MaxMind GeoLite2
162.120.192.107/32,US,United States,Colorado,Thornton,39.8662,-104.9755,IPv4,1,US,US-CO,Thornton,MaxMind GeoLite2
162.120.192.108/32,US,United States,Colorado,Westminster,39.8342,-105.0336,IPv4,1,US,US-CO,Westminster,MaxMind GeoLite2
162.120.192.109/32,US,United States,Iowa,Cedar Rapids,42.0182,-91.6468,IPv4,1,US,US-IA,Cedar Rapids,MaxMind GeoLite2
162.120.192.110/32,US,United States,Iowa,Iowa City,41.6594,-91.5265,IPv4,1,US,US-IA,Iowa City,MaxMind GeoLite2
162.120.192.111/32,US,United States,Minnesota,Duluth,46.7769,-92.1003,IPv4,1,US,US-MN,Duluth,MaxMind GeoLite2
162.120.192.112/32,US,United States,Minnesota,Saint Cloud,45.5639,-94.1589,IPv4,1,US,US-MN,St. Cloud,MaxMind GeoLite2
162.120.192.113/32,US,United States,Montana,Billings,45.785,-108.496,IPv4,1,US,US-MT,Billings,MaxMind GeoLite2
162.120.192.114/32,US,United States,North Dakota,Fargo,46.8796,-96.7814,IPv4,1,US,US-ND,Fargo,MaxMind GeoLite2
162.120.192.115/32,US,United States,New Mexico,Albuquerque,35.0781,-106.6583,IPv4,1,US,US-NM,Albuquerque,MaxMind GeoLite2
162.120.192.116/32,US,United States,South Dakota,Sioux Falls,43.547,-96.7244,IPv4,1,US,US-SD,Sioux Falls,MaxMind GeoLite2
162.120.192.117/32,US,United States,Utah,Layton,41.0854,-111.9682,IPv4,1,US,US-UT,Layton,MaxMind GeoLite2
162.120.192.118/32,US,United States,Utah,Logan,41.7304,-111.829,IPv4,1,US,US-UT,Logan,MaxMind GeoLite2
162.120.192.119/32,US,United States,Utah,St. George,37.1038,-113.5764,IPv4,1,US,US-UT,St. George,MaxMind GeoLite2
162.120.192.120/32,US,United States,Utah,Salt Lake City,40.7592,-111.8875,IPv4,1,US,US-UT,Salt Lake City,MaxMind GeoLite2
162.120.192.121/32,US,United States,Utah,Sandy,40.5916,-111.8841,IPv4,1,US,US-UT,Sandy,MaxMind GeoLite2
162.120.192.122/32,US,United States,Utah,West Jordan,40.598,-111.9619,IPv4,1,US,US-UT,West Jordan,MaxMind GeoLite2
162.120.192.123/32,US,United States,Utah,West Valley City,40.6981,-111.9999,IPv4,1,US,US-UT,West Valley City,MaxMind GeoLite2
162.120.192.124/32,US,United States,Wyoming,Cheyenne,41.1437,-104.8117,IPv4,1,US,US-WY,Cheyenne,MaxMind GeoLite2
162.120.192.125/32,US,United States,Colorado,Arvada,39.8034,-105.0954,IPv4,1,US,US-CO,Arvada,MaxMind GeoLite2
162.120.192.126/31,US,United States,Colorado,Boulder,40.0128,-105.2759,IPv4,2,US,US-CO,Boulder,MaxMind GeoLite2
162.120.192.128/32,TW,Taiwan,Kaohsiung,Daliao,22.5833,120.4,IPv4,1,TW,TW-KHH,Daliao District,MaxMind GeoLite2
162.120.192.129/32,TW,Taiwan,TW-KHH,Fengshan District,24.0,121.0,IPv4,1,TW,TW-KHH,Fengshan District,MaxMind GeoLite2
162.120.192.130/32,TW,Taiwan,TW-KHH,Gangshan District,24.0,121.0,IPv4,1,TW,TW-KHH,Gangshan District,MaxMind GeoLite2
162.120.192.131/32,TW,Taiwan,Kaohsiung,Nanzih District,22.7251,120.3209,IPv4,1,TW,TW-KHH,Nanzih District,MaxMind GeoLite2
162.120.192.132/32,TW,Taiwan,Kaohsiung,Renwu,22.7051,120.3438,IPv4,1,TW,TW-KHH,Renwu District,MaxMind GeoLite2
162.120.192.133/32,TW,Taiwan,TW-KHH,Sanmin District,24.0,121.0,IPv4,1,TW,TW-KHH,Sanmin District,MaxMind GeoLite2
162.120.192.134/32,TW,Taiwan,Kaohsiung,Yanchao,22.7985,120.3659,IPv4,1,TW,TW-KHH,Yanchao District,MaxMind GeoLite2
162.120.192.135/32,TW,Taiwan,Kaohsiung,Zuoying,22.6824,120.2958,IPv4,1,TW,TW-KHH,Zuoying District,MaxMind GeoLite2
162.120.192.136/32,TW,Taiwan,TW-MIA,Miaoli City,24.0,121.0,IPv4,1,TW,TW-MIA,Miaoli City,MaxMind GeoLite2
162.120.192.137/32,TW,Taiwan,Miaoli,Sanyi,24.3833,120.7667,IPv4,1,TW,TW-MIA,Sanyi Township,MaxMind GeoLite2
162.120.192.138/32,TW,Taiwan,Miaoli,Zhunan,24.7034,120.8691,IPv4,1,TW,TW-MIA,Zhunan Township,MaxMind GeoLite2
162.120.192.139/32,TW,Taiwan,Nantou,Caotun,23.9833,120.7333,IPv4,1,TW,TW-NAN,Caotun Township,MaxMind GeoLite2
162.120.192.140/32,TW,Taiwan,Nantou,Nantou City,23.9082,120.6559,IPv4,1,TW,TW-NAN,Nantou City,MaxMind GeoLite2
162.120.192.141/32,TW,Taiwan,TW-PEN,Magong City,24.0,121.0,IPv4,1,TW,TW-PEN,Magong City,MaxMind GeoLite2
162.120.192.142/32,TW,Taiwan,Pingtung,Pingtung City,22.6745,120.491,IPv4,1,TW,TW-PIF,Pingtung City,MaxMind GeoLite2
162.120.192.143/32,TW,Taiwan,Taoyuan,Bade District,24.9309,121.2904,IPv4,1,TW,TW-TAO,Bade District,MaxMind GeoLite2
162.120.192.144/32,TW,Taiwan,Taoyuan,Guishan,25.0273,121.359,IPv4,1,TW,TW-TAO,Guishan District,MaxMind GeoLite2
162.120.192.145/32,TW,Taiwan,Taoyuan,Longtan District,24.863,121.2102,IPv4,1,TW,TW-TAO,Longtan District,MaxMind GeoLite2
162.120.192.146/32,TW,Taiwan,Taoyuan,Luzhu,25.0667,121.2833,IPv4,1,TW,TW-TAO,Luzhu District,MaxMind GeoLite2
162.120.192.147/32,TW,Taiwan,Taoyuan,Pingzhen,24.9321,121.2134,IPv4,1,TW,TW-TAO,Pingzhen District,MaxMind GeoLite2
162.120.192.148/32,TW,Taiwan,Taoyuan,Taoyuan,24.9977,121.2965,IPv4,1,TW,TW-TAO,Taoyuan District,MaxMind GeoLite2
162.120.192.149/32,TW,Taiwan,Taoyuan,Zhongli District,24.9604,121.2392,IPv4,1,TW,TW-TAO,Zhongli District,MaxMind GeoLite2
162.120.192.150/32,TW,Taiwan,TW-TNN,Annan District,24.0,121.0,IPv4,1,TW,TW-TNN,Annan District,MaxMind GeoLite2
162.120.192.151/32,TW,Taiwan,Tainan,Rende,22.95,120.2333,IPv4,1,TW,TW-TNN,Rende District,MaxMind GeoLite2
162.120.192.152/32,TW,Taiwan,Tainan,Shanhua,23.15,120.2833,IPv4,1,TW,TW-TNN,Shanhua District,MaxMind GeoLite2
162.120.192.153/32,TW,Taiwan,Tainan,Xinying District,23.309,120.3143,IPv4,1,TW,TW-TNN,Xinying District,MaxMind GeoLite2
162.120.192.154/32,TW,Taiwan,Tainan,Yongkang District,23.0204,120.2591,IPv4,1,TW,TW-TNN,Yongkang District,MaxMind GeoLite2
162.120.192.155/32,TW,Taiwan,Taipei City,Beitou,25.15,121.5167,IPv4,1,TW,TW-TPE,Beitou District,MaxMind GeoLite2
162.120.192.156/32,TW,Taiwan,TW-TPE,Da’an District,24.0,121.0,IPv4,1,TW,TW-TPE,Da’an District,MaxMind GeoLite2
162.120.192.157/32,TW,Taiwan,TW-TPE,Datong District,24.0,121.0,IPv4,1,TW,TW-TPE,Datong District,MaxMind GeoLite2
162.120.192.158/32,TW,Taiwan,Taipei City,Neihu District,25.0811,121.5839,IPv4,1,TW,TW-TPE,Neihu District,MaxMind GeoLite2
162.120.192.159/32,TW,Taiwan,TW-TPE,Shilin District,24.0,121.0,IPv4,1,TW,TW-TPE,Shilin District,MaxMind GeoLite2
162.120.192.160/32,TW,Taiwan,Taipei City,Songshan,25.05,121.55,IPv4,1,TW,TW-TPE,Songshan District,MaxMind GeoLite2
162.120.192.161/32,TW,Taiwan,Taipei City,Xinyi,25.0304,121.5634,IPv4,1,TW,TW-TPE,Xinyi District,MaxMind GeoLite2
162.120.192.162/32,TW,Taiwan,Taipei City,Zhongshan,25.0696,121.5323,IPv4,1,TW,TW-TPE,Zhongshan District,MaxMind GeoLite2
162.120.192.163/32,TW,Taiwan,Taipei City,Zhongzheng,25.0479,121.5142,IPv4,1,TW,TW-TPE,Zhongzheng District,MaxMind GeoLite2
162.120.192.164/32,TW,Taiwan,New Taipei City,Banqiao,25.0104,121.4684,IPv4,1,TW,TW-TPQ,Banqiao District,MaxMind GeoLite2
162.120.192.165/32,TW,Taiwan,New Taipei City,Sanxia District,24.9337,121.372,IPv4,1,TW,TW-TPQ,Sanxia District,MaxMind GeoLite2
162.120.192.166/32,TW,Taiwan,New Taipei City,Sanchong District,25.0705,121.4904,IPv4,1,TW,TW-TPQ,Sanchong District,MaxMind GeoLite2
162.120.192.167/32,TW,Taiwan,New Taipei City,Tucheng,24.9667,121.4333,IPv4,1,TW,TW-TPQ,Tucheng District,MaxMind GeoLite2
162.120.192.168/32,TW,Taiwan,New Taipei City,Xindian District,24.9547,121.5354,IPv4,1,TW,TW-TPQ,Xindian District,MaxMind GeoLite2
162.120.192.169/32,TW,Taiwan,New Taipei City,Xinzhuang District,25.0422,121.4512,IPv4,1,TW,TW-TPQ,Xinzhuang District,MaxMind GeoLite2
162.120.192.170/32,TW,Taiwan,New Taipei City,Xizhi District,25.0696,121.6577,IPv4,1,TW,TW-TPQ,Xizhi District,MaxMind GeoLite2
162.120.192.171/32,TW,Taiwan,New Taipei City,Yonghe,25.0126,121.5258,IPv4,1,TW,TW-TPQ,Yonghe District,MaxMind GeoLite2
162.120.192.172/32,TW,Taiwan,New Taipei City,Zhonghe District,25.0,121.4833,IPv4,1,TW,TW-TPQ,Zhonghe District,MaxMind GeoLite2
162.120.192.173/32,TW,Taiwan,TW-TTT,Taitung City,24.0,121.0,IPv4,1,TW,TW-TTT,Taitung City,MaxMind GeoLite2
162.120.192.174/32,TW,Taiwan,Taichung City,Beitun,24.1771,120.7375,IPv4,1,TW,TW-TXG,Beitun District,MaxMind GeoLite2
162.120.192.175/32,TW,Taiwan,Taichung City,Dajia,24.3549,120.6253,IPv4,1,TW,TW-TXG,Dajia District,MaxMind GeoLite2
162.120.192.176/32,TW,Taiwan,Taichung City,Daya,24.2226,120.6493,IPv4,1,TW,TW-TXG,Daya District,MaxMind GeoLite2
162.120.192.177/32,TW,Taiwan,Taichung City,Fengyuan,24.25,120.7333,IPv4,1,TW,TW-TXG,Fengyuan District,MaxMind GeoLite2
162.120.192.178/32,TW,Taiwan,Taichung City,Nantun,24.1527,120.619,IPv4,1,TW,TW-TXG,Nantun District,MaxMind GeoLite2
162.120.192.179/32,TW,Taiwan,Taichung City,Shalu,24.2354,120.5561,IPv4,1,TW,TW-TXG,Shalu District,MaxMind GeoLite2
162.120.192.180/32,TW,Taiwan,Taichung City,Taiping,24.1167,120.7667,IPv4,1,TW,TW-TXG,Taiping District,MaxMind GeoLite2
162.120.192.181/32,TW,Taiwan,TW-TXG,West District,24.0,121.0,IPv4,1,TW,TW-TXG,West District,MaxMind GeoLite2
162.120.192.182/32,TW,Taiwan,Taichung City,Xitun,24.1674,120.6334,IPv4,1,TW,TW-TXG,Xitun District,MaxMind GeoLite2
162.120.192.183/32,TW,Taiwan,Yunlin,Douliu,23.7125,120.545,IPv4,1,TW,TW-YUN,Douliu City,MaxMind GeoLite2
162.120.192.184/32,TW,Taiwan,Yunlin,Huwei,23.7126,120.4285,IPv4,1,TW,TW-YUN,Huwei Township,MaxMind GeoLite2
162.120.192.192/32,US,United States,,,37.751,-97.822,IPv4,1,US,,,MaxMind GeoLite2
162.120.192.193/32,US,United States,Alaska,Anchorage,61.2199,-149.9077,IPv4,1,US,US-AK,Anchorage,MaxMind GeoLite2
162.120.192.194/32,US,United States,Alaska,Unalaska,53.8865,-166.5387,IPv4,1,US,US-AK,Unalaska,MaxMind GeoLite2
162.120.192.195/32,US,United States,Hawaii,Honolulu,21.3042,-157.8588,IPv4,1,US,US-HI,Honolulu,MaxMind GeoLite2
162.120.192.196/32,US,United States,Hawaii,Mililani Town,21.4535,-158.0193,IPv4,1,US,US-HI,Mililani,MaxMind GeoLite2
162.120.192.197/32,US,United States,Idaho,Boise,43.6165,-116.2001,IPv4,1,US,US-ID,Boise,MaxMind GeoLite2
162.120.192.198/32,US,United States,Idaho,Nampa,43.5441,-116.5662,IPv4,1,US,US-ID,Nampa,MaxMind GeoLite2
162.120.192.199/32,US,United States,Montana,Billings,45.785,-108.496,IPv4,1,US,US-MT,Billings,MaxMind GeoLite2
162.120.192.200/32,US,United States,Oregon,Beaverton,45.4844,-122.811,IPv4,1,US,US-OR,Beaverton,MaxMind GeoLite2
162.120.192.201/32,US,United States,Oregon,Boardman,45.8401,-119.705,IPv4,1,US,US-OR,Boardman,MaxMind GeoLite2
162.120.192.202/32,US,United States,Oregon,Grants Pass,42.4405,-123.3312,IPv4,1,US,US-OR,Grants Pass,MaxMind GeoLite2
162.120.192.203/32,US,United States,Oregon,Gresham,45.4982,-122.4315,IPv4,1,US,US-OR,Gresham,MaxMind GeoLite2
162.120.192.204/32,US,United States,Oregon,Medford,42.3394,-122.8475,IPv4,1,US,US-OR,Medford,MaxMind GeoLite2
162.120.192.205/32,US,United States,Oregon,Portland,45.5248,-122.6789,IPv4,1,US,US-OR,Portland,MaxMind GeoLite2
162.120.192.206/32,US,United States,Oregon,Prineville,44.3041,-120.8364,IPv4,1,US,US-OR,Prineville,MaxMind GeoLite2
162.120.192.207/32,US,United States,Oregon,Salem,44.9458,-123.0388,IPv4,1,US,US-OR,Salem,MaxMind GeoLite2
162.120.192.208/32,US,United States,Oregon,Tigard,45.4241,-122.7691,IPv4,1,US,US-OR,Tigard,MaxMind GeoLite2
162.120.192.209/32,US,United States,Washington,Bellevue,47.6126,-122.2037,IPv4,1,US,US-WA,Bellevue,MaxMind GeoLite2
162.120.192.210/32,US,United States,Washington,Bellingham,48.76,-122.4902,IPv4,1,US,US-WA,Bellingham,MaxMind GeoLite2
162.120.192.211/32,US,United States,Washington,Burien,47.465,-122.3553,IPv4,1,US,US-WA,Burien,MaxMind GeoLite2
162.120.192.212/32,US,United States,Washington,Everett,47.9856,-122.2002,IPv4,1,US,US-WA,Everett,MaxMind GeoLite2
162.120.192.213/32,US,United States,Washington,Fife,47.2315,-122.3592,IPv4,1,US,US-WA,Fife,MaxMind GeoLite2
162.120.192.214/32,US,United States,Washington,Kent,47.3822,-122.2415,IPv4,1,US,US-WA,Kent,MaxMind GeoLite2
162.120.192.215/32,US,United States,Washington,Kirkland,47.6787,-122.2117,IPv4,1,US,US-WA,Kirkland,MaxMind GeoLite2
162.120.192.216/32,US,United States,Washington,Lacey,47.024,-122.7827,IPv4,1,US,US-WA,Lacey,MaxMind GeoLite2
162.120.192.217/32,US,United States,Washington,Lakewood,47.171,-122.5089,IPv4,1,US,US-WA,Lakewood,MaxMind GeoLite2
162.120.192.218/32,US,United States,Washington,Longview,46.1382,-122.9382,IPv4,1,US,US-WA,Longview,MaxMind GeoLite2
162.120.192.219/32,US,United States,Washington,North Creek,47.8147,-122.1798,IPv4,1,US,US-WA,North Creek,MaxMind GeoLite2
162.120.192.220/32,US,United States,Washington,Quincy,47.2343,-119.8525,IPv4,1,US,US-WA,Quincy,MaxMind GeoLite2
162.120.192.221/32,US,United States,Washington,Renton,47.4714,-122.2203,IPv4,1,US,US-WA,Renton,MaxMind GeoLite2
162.120.192.222/32,US,United States,Washington,Seattle,47.6109,-122.3303,IPv4,1,US,US-WA,Seattle,MaxMind GeoLite2
162.120.192.223/32,US,United States,Washington,Shoreline,47.7519,-122.3434,IPv4,1,US,US-WA,Shoreline,MaxMind GeoLite2
162.120.192.224/32,US,United States,Washington,South Hill,47.1445,-122.2548,IPv4,1,US,US-WA,South Hill,MaxMind GeoLite2
162.120.192.225/32,US,United States,Washington,Spokane,47.6597,-117.4291,IPv4,1,US,US-WA,Spokane,MaxMind GeoLite2
162.120.192.226/32,US,United States,Washington,Tacoma,47.2565,-122.4421,IPv4,1,US,US-WA,Tacoma,MaxMind GeoLite2
162.120.192.227/32,CA,Canada,,,43.6319,-79.3716,IPv4,1,CA,,,MaxMind GeoLite2
162.120.192.228/32,NF,Norfolk Island,,,-29.0294,167.9501,IPv4,1,NF,,,MaxMind GeoLite2
162.120.192.229/32,CA,Canada,Alberta,Calgary,51.05,-114.0879,IPv4,1,CA,CA-AB,Calgary,MaxMind GeoLite2
162.120.192.230/32,CA,Canada,Alberta,Edmonton,53.5521,-113.4685,IPv4,1,CA,CA-AB,Edmonton,MaxMind GeoLite2
162.120.192.231/32,CA,Canada,British Columbia,Vancouver,49.2476,-123.1234,IPv4,1,CA,CA-BC,Vancouver,MaxMind GeoLite2
162.120.192.232/32,CA,Canada,British Columbia,Creston,49.0999,-116.5021,IPv4,1,CA,CA-BC,Creston,MaxMind GeoLite2
162.120.192.233/32,CA,Canada,British Columbia,Kelowna,49.8956,-119.4897,IPv4,1,CA,CA-BC,Kelowna,MaxMind GeoLite2
162.120.192.234/32,CA,Canada,British Columbia,Richmond,49.1689,-123.1442,IPv4,1,CA,CA-BC,Richmond,MaxMind GeoLite2
162.120.192.235/32,CA,Canada,British Columbia,Surrey,49.1049,-122.824,IPv4,1,CA,CA-BC,Surrey,MaxMind GeoLite2
162.120.192.236/32,CA,Canada,Yukon,Whitehorse,60.718,-135.0475,IPv4,1,CA,CA-YT,Whitehorse,MaxMind GeoLite2
162.120.192.237/32,CA,Canada,British Columbia,Creston,49.0999,-116.5021,IPv4,1,CA,CA-BC,Creston,MaxMind GeoLite2
162.120.192.238/31,US,United States,Oregon,Beaverton,45.4844,-122.811,IPv4,2,US,US-OR,Beaverton,MaxMind GeoLite2
162.120.192.240/28,CA,Canada,Alberta,Calgary,51.05,-114.0879,IPv4,16,CA,CA-AB,Calgary,MaxMind GeoLite2
162.120.193.0/32,US,United States,,,37.751,-97.822,IPv4,1,US,,,MaxMind GeoLite2
162.120.193.1/32,US,United States,Connecticut,Bloomfield,41.8304,-72.7199,IPv4,1,US,US-CT,Bloomfield,MaxMind GeoLite2
162.120.193.2/32,US,United States,Connecticut,Bridgeport,41.1784,-73.1863,IPv4,1,US,US-CT,Bridgeport,MaxMind GeoLite2
162.120.193.3/32,US,United States,Connecticut,Danbury,41.3973,-73.4527,IPv4,1,US,US-CT,Danbury,MaxMind GeoLite2
