IPRange,CountryCode,CountryName,Region,City,Latitude,Longitude,AddressFamily,NumAddresses,GeofeedCountry,GeofeedRegion,GeofeedCity,GeoSource
162.120.192.96/32,US,United States,,,37.751,-97.822,IPv4,1,US,,,MaxMind GeoLite2
162.120.192.97/32,US,United States,Colorado,Arvada,39.8034,-105.0954,IPv4,1,US,US-CO,Arvada,MaxMind GeoLite2
162.120.192.98/32,US,United States,Colorado,Aurora,39.7343,-104.8262,IPv4,1,US,US-CO,Aurora,MaxMind GeoLite2
162.120.192.99/32,US,United States,Colorado,Boulder,40.0128,-105.2759,IPv4,1,US,US-CO,Boulder,MaxMind GeoLite2
162.120.192.100/32,US,United States,Colorado,Centennial,39.5792,-104.8769,IPv4,1,US,US-CO,Centennial,MaxMind GeoLite2
162.120.192.101/32,US,United States,Colorado,Colorado Springs,38.8374,-104.8225,IPv4,1,US,US-CO,Colorado Springs,MaxMind GeoLite2
162.120.192.102/32,US,United States,Colorado,Denver,39.7391,-104.9866,IPv4,1,US,US-CO,Denver,MaxMind GeoLite2
162.120.192.103/32,US,United States,Colorado,Evergreen,39.6374,-105.3402,IPv4,1,US,US-CO,Evergreen,MaxMind GeoLite2
162.120.192.104/32,US,United States,Colorado,Fort Collins,40.5766,-105.0809,IPv4,1,US,US-CO,Fort Collins,MaxMind GeoLite2
162.120.192.105/32,US,United States,Colorado,Grand Junction,39.0761,-108.5451,IPv4,1,US,US-CO,Grand Junction,MaxMind GeoLite2
162.120.192.106/32,US,United States,Colorado,Ken Caryl,39.5727,-105.1112,IPv4,1,US,US-CO,Ken Caryl,MaxMind GeoLite2
162.120.192.107/32,US,United States,Colorado,Thornton,39.8662,-104.9755,IPv4,1,US,US-CO,Thornton,MaxMind GeoLite2
162.120.192.108/32,US,United States,Colorado,Westminster,39.8342,-105.0336,IPv4,1,US,US-CO,Westminster,MaxMind GeoLite2
162.120.192.109/32,US,United States,Iowa,Cedar Rapids,42.0182,-91.6468,IPv4,1,US,US-IA,Cedar Rapids,MaxMind GeoLite2
162.120.192.110/32,US,United States,Iowa,Iowa City,41.6594,-91.5265,IPv4,1,US,US-IA,Iowa City,MaxMind GeoLite2
162.120.192.111/32,US,United States,Minnesota,Duluth,46.7769,-92.1003,IPv4,1,US,US-MN,Duluth,MaxMind GeoLite2
162.120.192.112/32,US,United States,Minnesota,Saint Cloud,45.5639,-94.1589,IPv4,1,US,US-MN,St. Cloud,MaxMind GeoLite2
162.120.192.113/32,US,United States,Montana,Billings,45.785,-108.496,IPv4,1,US,US-MT,Billings,MaxMind GeoLite2
162.120.192.114/32,US,United States,North Dakota,Fargo,46.879,-96.7772,IPv4,1,US,US-ND,Fargo,MaxMind GeoLite2
162.120.192.115/32,US,United States,New Mexico,Albuquerque,35.0781,-106.6583,IPv4,1,US,US-NM,Albuquerque,MaxMind GeoLite2
162.120.192.116/32,US,United States,South Dakota,Sioux Falls,43.55,-96.6904,IPv4,1,US,US-SD,Sioux Falls,MaxMind GeoLite2
162.120.192.117/32,US,United States,Utah,Layton,41.0854,-111.9682,IPv4,1,US,US-UT,Layton,MaxMind GeoLite2
162.120.192.118/32,US,United States,Utah,Logan,41.7304,-111.829,IPv4,1,US,US-UT,Logan,MaxMind GeoLite2
162.120.192.119/32,US,United States,Utah,St. George,37.1038,-113.5764,IPv4,1,US,US-UT,St. George,MaxMind GeoLite2
162.120.192.120/32,US,United States,Utah,Salt Lake City,40.7592,-111.8875,IPv4,1,US,US-UT,Salt Lake City,MaxMind GeoLite2
162.120.192.121/32,US,United States,Utah,Sandy,40.576,-111.8788,IPv4,1,US,US-UT,Sandy,MaxMind GeoLite2
162.120.192.122/32,US,United States,Utah,West Jordan,40.598,-111.9619,IPv4,1,US,US-UT,West Jordan,MaxMind GeoLite2
162.120.192.123/32,US,United States,Utah,West Valley City,40.6981,-111.9999,IPv4,1,US,US-UT,West Valley City,MaxMind GeoLite2
162.120.192.124/32,US,United States,Wyoming,Cheyenne,41.1437,-104.8117,IPv4,1,US,US-WY,Cheyenne,MaxMind GeoLite2
162.120.192.128/32,TW,Taiwan,TW-KHH,Daliao District,24.0,121.0,IPv4,1,TW,TW-KHH,Daliao District,MaxMind GeoLite2
162.120.192.129/32,TW,Taiwan,TW-KHH,Fengshan District,24.0,121.0,IPv4,1,TW,TW-KHH,Fengshan District,MaxMind GeoLite2
162.120.192.130/32,TW,Taiwan,TW-KHH,Gangshan District,24.0,121.0,IPv4,1,TW,TW-KHH,Gangshan District,MaxMind GeoLite2
162.120.192.131/32,TW,Taiwan,Kaohsiung,Nanzih District,22.7251,120.3209,IPv4,1,TW,TW-KHH,Nanzih District,MaxMind GeoLite2
162.120.192.132/32,TW,Taiwan,TW-KHH,Renwu District,24.0,121.0,IPv4,1,TW,TW-KHH,Renwu District,MaxMind GeoLite2
162.120.192.133/32,TW,Taiwan,TW-KHH,Sanmin District,24.0,121.0,IPv4,1,TW,TW-KHH,Sanmin District,MaxMind GeoLite2
162.120.192.134/32,TW,Taiwan,TW-KHH,Yanchao District,24.0,121.0,IPv4,1,TW,TW-KHH,Yanchao District,MaxMind GeoLite2
162.120.192.135/32,TW,Taiwan,Kaohsiung,Zuoying,22.6824,120.2958,IPv4,1,TW,TW-KHH,Zuoying District,MaxMind GeoLite2
162.120.192.136/32,TW,Taiwan,TW-MIA,Miaoli City,24.0,121.0,IPv4,1,TW,TW-MIA,Miaoli City,MaxMind GeoLite2
162.120.192.137/32,TW,Taiwan,TW-MIA,Sanyi Township,24.0,121.0,IPv4,1,TW,TW-MIA,Sanyi Township,MaxMind GeoLite2
162.120.192.138/32,TW,Taiwan,TW-MIA,Zhunan Township,24.0,121.0,IPv4,1,TW,TW-MIA,Zhunan Township,MaxMind GeoLite2
162.120.192.139/32,TW,Taiwan,TW-NAN,Caotun Township,24.0,121.0,IPv4,1,TW,TW-NAN,Caotun Township,MaxMind GeoLite2
162.120.192.140/32,TW,Taiwan,Nantou,Nantou City,23.9082,120.6559,IPv4,1,TW,TW-NAN,Nantou City,MaxMind GeoLite2
162.120.192.141/32,TW,Taiwan,TW-PEN,Magong City,24.0,121.0,IPv4,1,TW,TW-PEN,Magong City,MaxMind GeoLite2
162.120.192.142/32,TW,Taiwan,Pingtung,Pingtung City,22.6745,120.491,IPv4,1,TW,TW-PIF,Pingtung City,MaxMind GeoLite2
162.120.192.143/32,TW,Taiwan,Taoyuan,Bade District,24.9309,121.2904,IPv4,1,TW,TW-TAO,Bade District,MaxMind GeoLite2
162.120.192.144/32,TW,Taiwan,Taoyuan,Guishan,25.0273,121.359,IPv4,1,TW,TW-TAO,Guishan District,MaxMind GeoLite2
162.120.192.145/32,TW,Taiwan,Taoyuan,Longtan District,24.863,121.2102,IPv4,1,TW,TW-TAO,Longtan District,MaxMind GeoLite2
162.120.192.146/32,TW,Taiwan,TW-TAO,Luzhu District,24.0,121.0,IPv4,1,TW,TW-TAO,Luzhu District,MaxMind GeoLite2
162.120.192.147/32,TW,Taiwan,TW-TAO,Pingzhen District,24.0,121.0,IPv4,1,TW,TW-TAO,Pingzhen District,MaxMind GeoLite2
162.120.192.148/32,TW,Taiwan,Taoyuan,Taoyuan District,24.9889,121.3176,IPv4,1,TW,TW-TAO,Taoyuan District,MaxMind GeoLite2
162.120.192.149/32,TW,Taiwan,Taoyuan,Zhongli District,24.9604,121.2392,IPv4,1,TW,TW-TAO,Zhongli District,MaxMind GeoLite2
162.120.192.150/32,TW,Taiwan,TW-TNN,Annan District,24.0,121.0,IPv4,1,TW,TW-TNN,Annan District,MaxMind GeoLite2
162.120.192.151/32,TW,Taiwan,TW-TNN,Rende District,24.0,121.0,IPv4,1,TW,TW-TNN,Rende District,MaxMind GeoLite2
162.120.192.152/32,TW,Taiwan,TW-TNN,Shanhua District,24.0,121.0,IPv4,1,TW,TW-TNN,Shanhua District,MaxMind GeoLite2
162.120.192.153/32,TW,Taiwan,Tainan,Xinying District,23.309,120.3143,IPv4,1,TW,TW-TNN,Xinying District,MaxMind GeoLite2
162.120.192.154/32,TW,Taiwan,Tainan,Yongkang District,23.0204,120.2591,IPv4,1,TW,TW-TNN,Yongkang District,MaxMind GeoLite2
162.120.192.155/32,TW,Taiwan,TW-TPE,Beitou District,24.0,121.0,IPv4,1,TW,TW-TPE,Beitou District,MaxMind GeoLite2
162.120.192.156/32,TW,Taiwan,TW-TPE,Da’an District,24.0,121.0,IPv4,1,TW,TW-TPE,Da’an District,MaxMind GeoLite2
162.120.192.157/32,TW,Taiwan,TW-TPE,Datong District,24.0,121.0,IPv4,1,TW,TW-TPE,Datong District,MaxMind GeoLite2
162.120.192.158/32,TW,Taiwan,Taipei City,Neihu District,25.0811,121.5839,IPv4,1,TW,TW-TPE,Neihu District,MaxMind GeoLite2
162.120.192.159/32,TW,Taiwan,TW-TPE,Shilin District,24.0,121.0,IPv4,1,TW,TW-TPE,Shilin District,MaxMind GeoLite2
162.120.192.160/32,TW,Taiwan,Taipei City,Songshan,25.05,121.55,IPv4,1,TW,TW-TPE,Songshan District,MaxMind GeoLite2
162.120.192.161/32,TW,Taiwan,TW-TPE,Xinyi District,24.0,121.0,IPv4,1,TW,TW-TPE,Xinyi District,MaxMind GeoLite2
162.120.192.162/32,TW,Taiwan,TW-TPE,Zhongshan District,24.0,121.0,IPv4,1,TW,TW-TPE,Zhongshan District,MaxMind GeoLite2
162.120.192.163/32,TW,Taiwan,TW-TPE,Zhongzheng District,24.0,121.0,IPv4,1,TW,TW-TPE,Zhongzheng District,MaxMind GeoLite2
162.120.192.164/32,TW,Taiwan,New Taipei City,Banqiao,25.0104,121.4684,IPv4,1,TW,TW-TPQ,Banqiao District,MaxMind GeoLite2
162.120.192.165/32,TW,Taiwan,New Taipei City,Sanxia District,24.9337,121.372,IPv4,1,TW,TW-TPQ,Sanxia District,MaxMind GeoLite2
162.120.192.166/32,TW,Taiwan,New Taipei City,Sanchong District,25.0705,121.4904,IPv4,1,TW,TW-TPQ,Sanchong District,MaxMind GeoLite2
162.120.192.167/32,TW,Taiwan,TW-TPQ,Tucheng District,24.0,121.0,IPv4,1,TW,TW-TPQ,Tucheng District,MaxMind GeoLite2
162.120.192.168/32,TW,Taiwan,New Taipei City,Xindian District,24.9547,121.5354,IPv4,1,TW,TW-TPQ,Xindian District,MaxMind GeoLite2
162.120.192.169/32,TW,Taiwan,New Taipei City,Xinzhuang District,25.0422,121.4512,IPv4,1,TW,TW-TPQ,Xinzhuang District,MaxMind GeoLite2
162.120.192.170/32,TW,Taiwan,New Taipei City,Xizhi District,25.0696,121.6577,IPv4,1,TW,TW-TPQ,Xizhi District,MaxMind GeoLite2
162.120.192.171/32,TW,Taiwan,New Taipei City,Yingge District,25.0126,121.5258,IPv4,1,TW,TW-TPQ,Yonghe District,MaxMind GeoLite2
162.120.192.172/32,TW,Taiwan,TW-TPQ,Zhonghe District,24.0,121.0,IPv4,1,TW,TW-TPQ,Zhonghe District,MaxMind GeoLite2
162.120.192.173/32,TW,Taiwan,TW-TTT,Taitung City,24.0,121.0,IPv4,1,TW,TW-TTT,Taitung City,MaxMind GeoLite2
162.120.192.174/32,TW,Taiwan,TW-TXG,Beitun District,24.0,121.0,IPv4,1,TW,TW-TXG,Beitun District,MaxMind GeoLite2
162.120.192.175/32,TW,Taiwan,TW-TXG,Dajia District,24.0,121.0,IPv4,1,TW,TW-TXG,Dajia District,MaxMind GeoLite2
162.120.192.176/32,TW,Taiwan,TW-TXG,Daya District,24.0,121.0,IPv4,1,TW,TW-TXG,Daya District,MaxMind GeoLite2
162.120.192.177/32,TW,Taiwan,TW-TXG,Fengyuan District,24.0,121.0,IPv4,1,TW,TW-TXG,Fengyuan District,MaxMind GeoLite2
162.120.192.178/32,TW,Taiwan,TW-TXG,Nantun District,24.0,121.0,IPv4,1,TW,TW-TXG,Nantun District,MaxMind GeoLite2
162.120.192.179/32,TW,Taiwan,TW-TXG,Shalu District,24.0,121.0,IPv4,1,TW,TW-TXG,Shalu District,MaxMind GeoLite2
162.120.192.180/32,TW,Taiwan,TW-TXG,Taiping District,24.0,121.0,IPv4,1,TW,TW-TXG,Taiping District,MaxMind GeoLite2
162.120.192.181/32,TW,Taiwan,TW-TXG,West District,24.0,121.0,IPv4,1,TW,TW-TXG,West District,MaxMind GeoLite2
162.120.192.182/32,TW,Taiwan,TW-TXG,Xitun District,24.0,121.0,IPv4,1,TW,TW-TXG,Xitun District,MaxMind GeoLite2
162.120.192.183/32,TW,Taiwan,TW-YUN,Douliu City,24.0,121.0,IPv4,1,TW,TW-YUN,Douliu City,MaxMind GeoLite2
162.120.192.184/32,TW,Taiwan,TW-YUN,Huwei Township,24.0,121.0,IPv4,1,TW,TW-YUN,Huwei Township,MaxMind GeoLite2
162.120.192.192/32,US,United States,,,37.751,-97.822,IPv4,1,US,,,MaxMind GeoLite2
162.120.192.193/32,US,United States,Alaska,Anchorage,61.2199,-149.9077,IPv4,1,US,US-AK,Anchorage,MaxMind GeoLite2
162.120.192.194/32,US,United States,Alaska,Unalaska,53.8865,-166.5387,IPv4,1,US,US-AK,Unalaska,MaxMind GeoLite2
162.120.192.195/32,US,United States,Hawaii,Honolulu,21.3042,-157.8588,IPv4,1,US,US-HI,Honolulu,MaxMind GeoLite2
162.120.192.196/32,US,United States,Hawaii,Mililani Town,21.4535,-158.0193,IPv4,1,US,US-HI,Mililani,MaxMind GeoLite2
162.120.192.197/32,US,United States,Idaho,Boise,43.6165,-116.2001,IPv4,1,US,US-ID,Boise,MaxMind GeoLite2
162.120.192.198/32,US,United States,Idaho,Nampa,43.5441,-116.5662,IPv4,1,US,US-ID,Nampa,MaxMind GeoLite2
162.120.192.199/32,US,United States,Montana,Billings,45.785,-108.496,IPv4,1,US,US-MT,Billings,MaxMind GeoLite2
162.120.192.200/32,US,United States,Oregon,Beaverton,45.4844,-122.811,IPv4,1,US,US-OR,Beaverton,MaxMind GeoLite2
162.120.192.201/32,US,United States,Oregon,Boardman,45.8401,-119.705,IPv4,1,US,US-OR,Boardman,MaxMind GeoLite2
162.120.192.202/32,US,United States,Oregon,Grants Pass,42.4405,-123.3312,IPv4,1,US,US-OR,Grants Pass,MaxMind GeoLite2
162.120.192.203/32,US,United States,Oregon,Gresham,45.5152,-122.4167,IPv4,1,US,US-OR,Gresham,MaxMind GeoLite2
162.120.192.204/32,US,United States,Oregon,Medford,42.3394,-122.8475,IPv4,1,US,US-OR,Medford,MaxMind GeoLite2
162.120.192.205/32,US,United States,Oregon,Portland,45.5248,-122.6789,IPv4,1,US,US-OR,Portland,MaxMind GeoLite2
162.120.192.206/32,US,United States,Oregon,Prineville,44.3041,-120.8364,IPv4,1,US,US-OR,Prineville,MaxMind GeoLite2
162.120.192.207/32,US,United States,Oregon,Salem,44.9458,-123.0388,IPv4,1,US,US-OR,Salem,MaxMind GeoLite2
162.120.192.208/32,US,United States,Oregon,Tigard,45.4241,-122.7691,IPv4,1,US,US-OR,Tigard,MaxMind GeoLite2
162.120.192.209/32,US,United States,Washington,Bellevue,47.6126,-122.2037,IPv4,1,US,US-WA,Bellevue,MaxMind GeoLite2
162.120.192.210/32,US,United States,Washington,Bellingham,48.76,-122.4902,IPv4,1,US,US-WA,Bellingham,MaxMind GeoLite2
162.120.192.211/32,US,United States,Washington,Burien,47.465,-122.3553,IPv4,1,US,US-WA,Burien,MaxMind GeoLite2
162.120.192.212/32,US,United States,Washington,Everett,47.9856,-122.2002,IPv4,1,US,US-WA,Everett,MaxMind GeoLite2
162.120.192.213/32,US,United States,Washington,Fife,47.2315,-122.3592,IPv4,1,US,US-WA,Fife,MaxMind GeoLite2
162.120.192.214/32,US,United States,Washington,Kent,47.3822,-122.2415,IPv4,1,US,US-WA,Kent,MaxMind GeoLite2
162.120.192.215/32,US,United States,Washington,Kirkland,47.6787,-122.2117,IPv4,1,US,US-WA,Kirkland,MaxMind GeoLite2
162.120.192.216/32,US,United States,Washington,Lacey,47.024,-122.7827,IPv4,1,US,US-WA,Lacey,MaxMind GeoLite2
162.120.192.217/32,US,United States,Washington,Lakewood,47.171,-122.5089,IPv4,1,US,US-WA,Lakewood,MaxMind GeoLite2
162.120.192.218/32,US,United States,Washington,Longview,46.1382,-122.9382,IPv4,1,US,US-WA,Longview,MaxMind GeoLite2
162.120.192.219/32,US,United States,Washington,North Creek,47.8147,-122.1798,IPv4,1,US,US-WA,North Creek,MaxMind GeoLite2
162.120.192.220/32,US,United States,Washington,Quincy,47.2343,-119.8525,IPv4,1,US,US-WA,Quincy,MaxMind GeoLite2
162.120.192.221/32,US,United States,Washington,Renton,47.4714,-122.2203,IPv4,1,US,US-WA,Renton,MaxMind GeoLite2
162.120.192.222/32,US,United States,Washington,Seattle,47.6109,-122.3303,IPv4,1,US,US-WA,Seattle,MaxMind GeoLite2
162.120.192.223/32,US,United States,Washington,Shoreline,47.7519,-122.3434,IPv4,1,US,US-WA,Shoreline,MaxMind GeoLite2
162.120.192.224/32,US,United States,Washington,South Hill,47.1445,-122.2548,IPv4,1,US,US-WA,South Hill,MaxMind GeoLite2
162.120.192.225/32,US,United States,Washington,Spokane,47.6597,-117.4291,IPv4,1,US,US-WA,Spokane,MaxMind GeoLite2
162.120.192.226/32,US,United States,Washington,Tacoma,47.2565,-122.4421,IPv4,1,US,US-WA,Tacoma,MaxMind GeoLite2
162.120.192.227/32,CA,Canada,,,43.6319,-79.3716,IPv4,1,CA,,,MaxMind GeoLite2
162.120.192.228/32,NF,Norfolk Island,,,-29.0294,167.9501,IPv4,1,NF,,,MaxMind GeoLite2
162.120.192.229/32,CA,Canada,Alberta,Calgary,51.0406,-114.0764,IPv4,1,CA,CA-AB,Calgary,MaxMind GeoLite2
162.120.192.230/32,CA,Canada,Alberta,Edmonton,53.5534,-113.4982,IPv4,1,CA,CA-AB,Edmonton,MaxMind GeoLite2
162.120.192.231/32,CA,Canada,British Columbia,Vancouver,49.2476,-123.1234,IPv4,1,CA,CA-BC,Vancouver,MaxMind GeoLite2
162.120.192.232/32,CA,Canada,British Columbia,Creston,49.0999,-116.5021,IPv4,1,CA,CA-BC,Creston,MaxMind GeoLite2
162.120.192.233/32,CA,Canada,British Columbia,Kelowna,49.8956,-119.4897,IPv4,1,CA,CA-BC,Kelowna,MaxMind GeoLite2
162.120.192.234/32,CA,Canada,British Columbia,Richmond,49.1689,-123.1442,IPv4,1,CA,CA-BC,Richmond,MaxMind GeoLite2
162.120.192.235/32,CA,Canada,British Columbia,Surrey,49.1049,-122.824,IPv4,1,CA,CA-BC,Surrey,MaxMind GeoLite2
162.120.192.236/32,CA,Canada,Yukon,Whitehorse,60.718,-135.0475,IPv4,1,CA,CA-YT,Whitehorse,MaxMind GeoLite2
162.120.193.0/32,US,United States,,,37.751,-97.822,IPv4,1,US,,,MaxMind GeoLite2
162.120.193.1/32,US,United States,Connecticut,Bloomfield,41.8304,-72.7199,IPv4,1,US,US-CT,Bloomfield,MaxMind GeoLite2
162.120.193.2/32,US,United States,Connecticut,Bridgeport,41.1784,-73.1863,IPv4,1,US,US-CT,Bridgeport,MaxMind GeoLite2
162.120.193.3/32,US,United States,Connecticut,Danbury,41.3973,-73.4527,IPv4,1,US,US-CT,Danbury,MaxMind GeoLite2
162.120.193.4/32,US,United States,Connecticut,Hartford,41.7655,-72.6819,IPv4,1,US,US-CT,Hartford,MaxMind GeoLite2
162.120.193.5/32,US,United States,Connecticut,Manchester,41.776,-72.5283,IPv4,1,US,US-CT,Manchester,MaxMind GeoLite2
162.120.193.6/32,US,United States,Connecticut,Milford,41.217,-73.0552,IPv4,1,US,US-CT,Milford,MaxMind GeoLite2
162.120.193.7/32,US,United States,Connecticut,New Britain,41.668,-72.7802,IPv4,1,US,US-CT,New Britain,MaxMind GeoLite2
162.120.193.8/32,US,United States,Connecticut,New Haven,41.3078,-72.9255,IPv4,1,US,US-CT,New Haven,MaxMind GeoLite2
162.120.193.9/32,US,United States,Connecticut,Norwalk,41.1099,-73.4114,IPv4,1,US,US-CT,Norwalk,MaxMind GeoLite2
162.120.193.10/32,US,United States,Connecticut,Norwich,41.5312,-72.0875,IPv4,1,US,US-CT,Norwich,MaxMind GeoLite2
162.120.193.11/32,US,United States,Connecticut,Stamford,41.0534,-73.5387,IPv4,1,US,US-CT,Stamford,MaxMind GeoLite2
162.120.193.12/32,US,United States,Connecticut,Waterbury,41.5577,-73.0547,IPv4,1,US,US-CT,Waterbury,MaxMind GeoLite2
162.120.193.13/32,US,United States,District of Columbia,Washington,38.894,-77.0365,IPv4,1,US,US-DC,Washington,MaxMind GeoLite2
162.120.193.14/32,US,United States,Delaware,Dover,39.1599,-75.5196,IPv4,1,US,US-DE,Dover,MaxMind GeoLite2
162.120.193.15/32,US,United States,Delaware,Wilmington,39.7503,-75.5453,IPv4,1,US,US-DE,Wilmington,MaxMind GeoLite2
162.120.193.16/32,US,United States,Georgia,Dalton,34.7699,-84.9796,IPv4,1,US,US-GA,Dalton,MaxMind GeoLite2
162.120.193.17/32,US,United States,Indiana,Columbus,39.1988,-85.9253,IPv4,1,US,US-IN,Columbus,MaxMind GeoLite2
162.120.193.18/32,US,United States,Indiana,Evansville,37.9689,-87.553,IPv4,1,US,US-IN,Evansville,MaxMind GeoLite2
162.120.193.19/32,US,United States,Massachusetts,Auburn,42.2045,-71.8338,IPv4,1,US,US-MA,Auburn,MaxMind GeoLite2
162.120.193.20/32,US,United States,Massachusetts,Boston,42.3574,-71.0618,IPv4,1,US,US-MA,Boston,MaxMind GeoLite2
162.120.193.21/32,US,United States,Massachusetts,Brockton,42.0879,-71.0262,IPv4,1,US,US-MA,Brockton,MaxMind GeoLite2
162.120.193.22/32,US,United States,Massachusetts,Cambridge,42.3797,-71.1034,IPv4,1,US,US-MA,Cambridge,MaxMind GeoLite2
162.120.193.23/32,US,United States,Massachusetts,Framingham,42.2832,-71.4296,IPv4,1,US,US-MA,Framingham,MaxMind GeoLite2
162.120.193.24/32,US,United States,Massachusetts,Franklin,42.0834,-71.3967,IPv4,1,US,US-MA,Franklin,MaxMind GeoLite2
162.120.193.25/32,US,United States,Massachusetts,Leominster,42.5301,-71.7553,IPv4,1,US,US-MA,Leominster,MaxMind GeoLite2
162.120.193.26/32,US,United States,Massachusetts,Lynn,42.4684,-70.9468,IPv4,1,US,US-MA,Lynn,MaxMind GeoLite2
162.120.193.27/32,US,United States,Massachusetts,Medford,42.415,-71.1061,IPv4,1,US,US-MA,Medford,MaxMind GeoLite2
162.120.193.28/32,US,United States,Massachusetts,New Bedford,41.6332,-70.9167,IPv4,1,US,US-MA,New Bedford,MaxMind GeoLite2
162.120.193.29/32,US,United States,Massachusetts,Norwood,42.1897,-71.2048,IPv4,1,US,US-MA,Norwood,MaxMind GeoLite2
162.120.193.30/32,US,United States,Massachusetts,Plymouth,41.961,-70.664,IPv4,1,US,US-MA,Plymouth,MaxMind GeoLite2
162.120.193.31/32,US,United States,Massachusetts,Quincy,42.2573,-70.9985,IPv4,1,US,US-MA,Quincy,MaxMind GeoLite2
162.120.193.32/32,US,United States,Massachusetts,Springfield,42.0986,-72.5931,IPv4,1,US,US-MA,Springfield,MaxMind GeoLite2
162.120.193.33/32,US,United States,Massachusetts,Woburn,42.4806,-71.1562,IPv4,1,US,US-MA,Woburn,MaxMind GeoLite2
162.120.193.34/32,US,United States,Massachusetts,Worcester,42.2624,-71.8011,IPv4,1,US,US-MA,Worcester,MaxMind GeoLite2
162.120.193.35/32,US,United States,Maryland,Annapolis,38.9747,-76.4932,IPv4,1,US,US-MD,Annapolis,MaxMind GeoLite2
162.120.193.36/32,US,United States,Maryland,Baltimore,39.2889,-76.623,IPv4,1,US,US-MD,Baltimore,MaxMind GeoLite2
162.120.193.37/32,US,United States,Maryland,Bel Air South,39.5066,-76.32,IPv4,1,US,US-MD,Bel Air South,MaxMind GeoLite2
162.120.193.38/32,US,United States,Maryland,Bowie,38.9275,-76.7153,IPv4,1,US,US-MD,Bowie,MaxMind GeoLite2
162.120.193.39/32,US,United States,Maryland,College Park,38.994,-76.9519,IPv4,1,US,US-MD,College Park,MaxMind GeoLite2
162.120.193.40/32,US,United States,Maryland,Columbia,39.211,-76.8362,IPv4,1,US,US-MD,Columbia,MaxMind GeoLite2
162.120.193.41/32,US,United States,Maryland,Dundalk,39.2507,-76.5205,IPv4,1,US,US-MD,Dundalk,MaxMind GeoLite2
162.120.193.42/32,US,United States,Maryland,Ellicott City,39.2514,-76.7979,IPv4,1,US,US-MD,Ellicott City,MaxMind GeoLite2
162.120.193.43/32,US,United States,Maryland,Frederick,39.4152,-77.4154,IPv4,1,US,US-MD,Frederick,MaxMind GeoLite2
162.120.193.44/32,US,United States,Maryland,Gaithersburg,39.1406,-77.1979,IPv4,1,US,US-MD,Gaithersburg,MaxMind GeoLite2
162.120.193.45/32,US,United States,Maryland,Glen Burnie,39.1658,-76.6382,IPv4,1,US,US-MD,Glen Burnie,MaxMind GeoLite2
162.120.193.46/32,US,United States,Maryland,Landover,38.9403,-76.8959,IPv4,1,US,US-MD,Greater Landover,MaxMind GeoLite2
162.120.193.47/32,US,United States,Maryland,Owings Mills,39.4234,-76.7762,IPv4,1,US,US-MD,Owings Mills,MaxMind GeoLite2
162.120.193.48/32,US,United States,Maryland,Rockville,39.0784,-77.1587,IPv4,1,US,US-MD,Rockville,MaxMind GeoLite2
162.120.193.49/32,US,United States,Maryland,Saint Charles,38.6032,-76.9386,IPv4,1,US,US-MD,Saint Charles,MaxMind GeoLite2
162.120.193.50/32,US,United States,Maryland,Salisbury,38.3802,-75.6347,IPv4,1,US,US-MD,Salisbury,MaxMind GeoLite2
162.120.193.51/32,US,United States,Maryland,Silver Spring,38.9886,-77.0241,IPv4,1,US,US-MD,Silver Spring,MaxMind GeoLite2
162.120.193.52/32,US,United States,Maryland,Suitland-Silver Hill,38.8418,-76.9189,IPv4,1,US,US-MD,Suitland-Silver Hill,MaxMind GeoLite2
162.120.193.53/32,US,United States,Maryland,Towson,39.4091,-76.5991,IPv4,1,US,US-MD,Towson,MaxMind GeoLite2
162.120.193.54/32,US,United States,Maryland,Wheaton-Glenmont,39.2909,-76.6096,IPv4,1,US,US-MD,Wheaton-Glenmont,MaxMind GeoLite2
162.120.193.55/32,US,United States,Michigan,Flint,43.0128,-83.6967,IPv4,1,US,US-MI,Flint,MaxMind GeoLite2
162.120.193.56/32,US,United States,Michigan,Midland,43.6151,-84.2506,IPv4,1,US,US-MI,Midland,MaxMind GeoLite2
162.120.193.57/32,US,United States,Michigan,Saginaw,43.4222,-83.9498,IPv4,1,US,US-MI,Saginaw,MaxMind GeoLite2
162.120.193.58/32,US,United States,Michigan,Traverse City,44.7603,-85.618,IPv4,1,US,US-MI,Traverse City,MaxMind GeoLite2
162.120.193.59/32,US,United States,Minnesota,Blaine,45.1654,-93.2463,IPv4,1,US,US-MN,Blaine,MaxMind GeoLite2
162.120.193.60/32,US,United States,Minnesota,Bloomington,44.845,-93.3053,IPv4,1,US,US-MN,Bloomington,MaxMind GeoLite2
162.120.193.61/32,US,United States,Minnesota,Brooklyn Park,45.093,-93.3589,IPv4,1,US,US-MN,Brooklyn Park,MaxMind GeoLite2
162.120.193.62/32,US,United States,Minnesota,Eagan,44.806,-93.1409,IPv4,1,US,US-MN,Eagan,MaxMind GeoLite2
162.120.193.63/32,US,United States,Minnesota,Eden Prairie,44.8565,-93.4388,IPv4,1,US,US-MN,Eden Prairie,MaxMind GeoLite2
162.120.193.64/32,US,United States,Minnesota,Maplewood,44.9534,-92.9954,IPv4,1,US,US-MN,Maplewood,MaxMind GeoLite2
162.120.193.65/32,US,United States,Minnesota,Minneapolis,44.9834,-93.2622,IPv4,1,US,US-MN,Minneapolis,MaxMind GeoLite2
162.120.193.66/32,US,United States,Minnesota,Plymouth,45.0151,-93.4487,IPv4,1,US,US-MN,Plymouth,MaxMind GeoLite2
162.120.193.67/32,US,United States,Minnesota,Saint Paul,44.9411,-93.0949,IPv4,1,US,US-MN,Saint Paul,MaxMind GeoLite2
162.120.193.68/32,US,United States,Minnesota,White Bear Lake,45.08,-93.0227,IPv4,1,US,US-MN,White Bear Lake,MaxMind GeoLite2
162.120.193.69/32,US,United States,Minnesota,Woodbury,44.9174,-92.9478,IPv4,1,US,US-MN,Woodbury,MaxMind GeoLite2
162.120.193.70/32,US,United States,North Carolina,Asheville,35.5947,-82.5545,IPv4,1,US,US-NC,Asheville,MaxMind GeoLite2
162.120.193.71/32,US,United States,North Carolina,Burlington,36.1287,-79.4086,IPv4,1,US,US-NC,Burlington,MaxMind GeoLite2
162.120.193.72/32,US,United States,North Carolina,Cary,35.7965,-78.7981,IPv4,1,US,US-NC,Cary,MaxMind GeoLite2
162.120.193.73/32,US,United States,North Carolina,Charlotte,35.2296,-80.843,IPv4,1,US,US-NC,Charlotte,MaxMind GeoLite2
162.120.193.74/32,US,United States,North Carolina,Concord,35.4155,-80.6143,IPv4,1,US,US-NC,Concord,MaxMind GeoLite2
162.120.193.75/32,US,United States,North Carolina,Fayetteville,35.059,-78.9039,IPv4,1,US,US-NC,Fayetteville,MaxMind GeoLite2
162.120.193.76/32,US,United States,North Carolina,Forest City,35.334,-81.8651,IPv4,1,US,US-NC,Forest City,MaxMind GeoLite2
162.120.193.77/32,US,United States,North Carolina,Franklin,35.1829,-83.3865,IPv4,1,US,US-NC,Franklin,MaxMind GeoLite2
162.120.193.78/32,US,United States,North Carolina,Fort Liberty,35.1407,-79.0032,IPv4,1,US,US-NC,Fort Bragg,MaxMind GeoLite2
162.120.193.79/32,US,United States,North Carolina,Gastonia,35.2912,-81.1943,IPv4,1,US,US-NC,Gastonia,MaxMind GeoLite2
162.120.193.80/32,US,United States,North Carolina,Goldsboro,35.349,-77.9619,IPv4,1,US,US-NC,Goldsboro,MaxMind GeoLite2
162.120.193.81/32,US,United States,North Carolina,Greensboro,36.0765,-79.7947,IPv4,1,US,US-NC,Greensboro,MaxMind GeoLite2
162.120.193.82/32,US,United States,North Carolina,Greenville,35.6218,-77.396,IPv4,1,US,US-NC,Greenville,MaxMind GeoLite2
162.120.193.83/32,US,United States,North Carolina,Hendersonville,35.32,-82.5028,IPv4,1,US,US-NC,Hendersonville,MaxMind GeoLite2
162.120.193.84/32,US,United States,North Carolina,Hickory,35.7532,-81.3264,IPv4,1,US,US-NC,Hickory,MaxMind GeoLite2
162.120.193.85/32,US,United States,North Carolina,High Point,35.9507,-79.9792,IPv4,1,US,US-NC,High Point,MaxMind GeoLite2
162.120.193.86/32,US,United States,North Carolina,Monroe,35.0122,-80.5598,IPv4,1,US,US-NC,Monroe,MaxMind GeoLite2
162.120.193.87/32,US,United States,North Carolina,Morganton,35.7464,-81.6774,IPv4,1,US,US-NC,Morganton,MaxMind GeoLite2
162.120.193.88/32,US,United States,North Carolina,Raleigh,35.7704,-78.6293,IPv4,1,US,US-NC,Raleigh,MaxMind GeoLite2
162.120.193.89/32,US,United States,North Carolina,Wilmington,34.2283,-77.9519,IPv4,1,US,US-NC,Wilmington,MaxMind GeoLite2
162.120.193.90/32,US,United States,North Carolina,Wilson,35.7274,-77.9228,IPv4,1,US,US-NC,Wilson,MaxMind GeoLite2
162.120.193.91/32,US,United States,North Carolina,Winston-Salem,36.0976,-80.2365,IPv4,1,US,US-NC,Winston-Salem,MaxMind GeoLite2
162.120.193.92/32,US,United States,New Jersey,Camden,39.9247,-75.115,IPv4,1,US,US-NJ,Camden,MaxMind GeoLite2
162.120.193.93/32,US,United States,New Jersey,Cherry Hill,39.9242,-75.0193,IPv4,1,US,US-NJ,Cherry Hill,MaxMind GeoLite2
162.120.193.94/32,US,United States,New Jersey,Clifton,40.8605,-74.1654,IPv4,1,US,US-NJ,Clifton,MaxMind GeoLite2
162.120.193.95/32,US,United States,New Jersey,Edison,40.5237,-74.4151,IPv4,1,US,US-NJ,Edison,MaxMind GeoLite2
162.120.193.96/32,US,United States,New Jersey,Egg Harbor Township,40.7399,-74.1691,IPv4,1,US,US-NJ,Egg Harbor Township,MaxMind GeoLite2
162.120.193.97/32,US,United States,New Jersey,Elizabeth,40.6601,-74.2098,IPv4,1,US,US-NJ,Elizabeth,MaxMind GeoLite2
162.120.193.98/32,US,United States,New Jersey,Fort Lee,40.8492,-73.9735,IPv4,1,US,US-NJ,Fort Lee,MaxMind GeoLite2
162.120.193.99/32,US,United States,New Jersey,Garfield,40.8751,-74.116,IPv4,1,US,US-NJ,Garfield,MaxMind GeoLite2
162.120.193.100/32,US,United States,New Jersey,Gloucester Township,40.7399,-74.1691,IPv4,1,US,US-NJ,Gloucester Township,MaxMind GeoLite2
162.120.193.101/32,US,United States,New Jersey,Hackensack,40.8853,-74.0383,IPv4,1,US,US-NJ,Hackensack,MaxMind GeoLite2
162.120.193.102/32,US,United States,New Jersey,Howell Township,40.1659,-74.2034,IPv4,1,US,US-NJ,Howell Township,MaxMind GeoLite2
162.120.193.103/32,US,United States,New Jersey,Irvington,40.7238,-74.2293,IPv4,1,US,US-NJ,Irvington,MaxMind GeoLite2
162.120.193.104/32,US,United States,New Jersey,Jersey City,40.7308,-74.0789,IPv4,1,US,US-NJ,Jersey City,MaxMind GeoLite2
162.120.193.105/32,US,United States,New Jersey,Mahwah,41.0913,-74.1479,IPv4,1,US,US-NJ,Mahwah,MaxMind GeoLite2
162.120.193.106/32,US,United States,New Jersey,Middletown,40.3909,-74.1153,IPv4,1,US,US-NJ,Middletown Township,MaxMind GeoLite2
162.120.193.107/32,US,United States,New Jersey,Montville,40.9148,-74.3838,IPv4,1,US,US-NJ,Montville,MaxMind GeoLite2
162.120.193.108/32,US,United States,New Jersey,Mount Laurel,39.9458,-74.9042,IPv4,1,US,US-NJ,Mount Laurel Township,MaxMind GeoLite2
162.120.193.109/32,US,United States,New Jersey,New Brunswick,40.488,-74.4544,IPv4,1,US,US-NJ,New Brunswick,MaxMind GeoLite2
162.120.193.110/32,US,United States,New Jersey,Newark,40.7399,-74.1691,IPv4,1,US,US-NJ,Newark,MaxMind GeoLite2
162.120.193.111/32,US,United States,New Jersey,North Bergen,40.7964,-74.0203,IPv4,1,US,US-NJ,North Bergen,MaxMind GeoLite2
162.120.193.112/32,US,United States,New Jersey,Old Bridge,40.4148,-74.3654,IPv4,1,US,US-NJ,Old Bridge,MaxMind GeoLite2
162.120.193.113/32,US,United States,New Jersey,Paramus,40.9494,-74.0828,IPv4,1,US,US-NJ,Paramus,MaxMind GeoLite2
162.120.193.114/32,US,United States,New Jersey,Parsippany-Troy Hills,40.7399,-74.1691,IPv4,1,US,US-NJ,Parsippany-Troy Hills,MaxMind GeoLite2
162.120.193.115/32,US,United States,New Jersey,Paterson,40.9186,-74.1781,IPv4,1,US,US-NJ,Paterson,MaxMind GeoLite2
162.120.193.116/32,US,United States,New Jersey,Piscataway,40.5511,-74.4606,IPv4,1,US,US-NJ,Piscataway,MaxMind GeoLite2
162.120.193.117/32,US,United States,New Jersey,Plainfield,40.637,-74.4025,IPv4,1,US,US-NJ,Plainfield,MaxMind GeoLite2
162.120.193.118/32,US,United States,New Jersey,Raritan Township,40.7399,-74.1691,IPv4,1,US,US-NJ,Raritan Township,MaxMind GeoLite2
162.120.193.119/32,US,United States,New Jersey,Rutherford,40.8342,-74.1014,IPv4,1,US,US-NJ,Rutherford,MaxMind GeoLite2
162.120.193.120/32,US,United States,New Jersey,Secaucus,40.7876,-74.06,IPv4,1,US,US-NJ,Secaucus,MaxMind GeoLite2
162.120.193.121/32,US,United States,New Jersey,Toms River,39.9769,-74.1601,IPv4,1,US,US-NJ,Toms River,MaxMind GeoLite2
162.120.193.122/32,US,United States,New Jersey,Trenton,40.2187,-74.7404,IPv4,1,US,US-NJ,Trenton,MaxMind GeoLite2
162.120.193.123/32,US,United States,New Jersey,Union,40.6947,-74.2688,IPv4,1,US,US-NJ,Union,MaxMind GeoLite2
162.120.193.124/32,US,United States,New Jersey,Wayne,40.9451,-74.2531,IPv4,1,US,US-NJ,Wayne,MaxMind GeoLite2
162.120.193.125/32,US,United States,New Jersey,West Deptford,40.7399,-74.1691,IPv4,1,US,US-NJ,West Deptford,MaxMind GeoLite2
162.120.193.126/32,US,United States,New Jersey,West Orange,40.798,-74.2416,IPv4,1,US,US-NJ,West Orange,MaxMind GeoLite2
162.120.193.127/32,US,United States,New Jersey,West Windsor Township,40.7399,-74.1691,IPv4,1,US,US-NJ,West Windsor Township,MaxMind GeoLite2
162.120.193.128/32,US,United States,New Jersey,Willingboro,40.0296,-74.8834,IPv4,1,US,US-NJ,Willingboro,MaxMind GeoLite2
162.120.193.129/32,US,United States,New York,Coram,40.8687,-73.0015,IPv4,1,US,US-NY,Coram,MaxMind GeoLite2
162.120.193.130/32,US,United States,New York,Shirley,40.8018,-72.8675,IPv4,1,US,US-NY,Shirley,MaxMind GeoLite2
162.120.193.131/32,US,United States,New York,Glen Cove,40.8627,-73.6351,IPv4,1,US,US-NY,Glen Cove,MaxMind GeoLite2
162.120.193.132/32,US,United States,New York,Hempstead,40.7052,-73.619,IPv4,1,US,US-NY,Hempstead,MaxMind GeoLite2
162.120.193.133/32,US,United States,New York,Hicksville,40.7684,-73.5254,IPv4,1,US,US-NY,Hicksville,MaxMind GeoLite2
162.120.193.134/32,US,United States,New York,Kingston,41.9241,-74.0029,IPv4,1,US,US-NY,Kingston,MaxMind GeoLite2
162.120.193.135/32,US,United States,New York,Levittown,40.7279,-73.5118,IPv4,1,US,US-NY,Levittown,MaxMind GeoLite2
162.120.193.136/32,US,United States,New York,New City,41.1462,-73.9966,IPv4,1,US,US-NY,New City,MaxMind GeoLite2
162.120.193.137/32,US,United States,New York,New York,40.7126,-74.0066,IPv4,1,US,US-NY,New York City,MaxMind GeoLite2
162.120.193.138/32,US,United States,New York,Poughkeepsie,41.7017,-73.9078,IPv4,1,US,US-NY,Poughkeepsie,MaxMind GeoLite2
162.120.193.139/32,US,United States,New York,Middletown,41.4535,-74.4774,IPv4,1,US,US-NY,Middletown,MaxMind GeoLite2
162.120.193.140/32,US,United States,New York,Spring Valley,41.1144,-74.0429,IPv4,1,US,US-NY,Spring Valley,MaxMind GeoLite2
162.120.193.141/32,US,United States,New York,Stony Brook,40.928,-73.1443,IPv4,1,US,US-NY,Stony Brook,MaxMind GeoLite2
162.120.193.142/32,US,United States,New York,Valley Stream,40.6608,-73.7079,IPv4,1,US,US-NY,Valley Stream,MaxMind GeoLite2
162.120.193.143/32,US,United States,New York,West Babylon,40.7182,-73.3556,IPv4,1,US,US-NY,West Babylon,MaxMind GeoLite2
162.120.193.144/32,US,United States,New York,Brentwood,40.7801,-73.2458,IPv4,1,US,US-NY,Brentwood,MaxMind GeoLite2
162.120.193.145/32,US,United States,New York,White Plains,41.0326,-73.7621,IPv4,1,US,US-NY,White Plains,MaxMind GeoLite2
162.120.193.146/32,US,United States,New York,Yonkers,40.9286,-73.9,IPv4,1,US,US-NY,Yonkers,MaxMind GeoLite2
162.120.193.147/32,US,United States,Ohio,Akron,41.0793,-81.5229,IPv4,1,US,US-OH,Akron,MaxMind GeoLite2
162.120.193.148/32,US,United States,Ohio,Canton,40.7961,-81.3798,IPv4,1,US,US-OH,Canton,MaxMind GeoLite2
162.120.193.149/32,US,United States,Ohio,Dayton,39.7648,-84.1904,IPv4,1,US,US-OH,Dayton,MaxMind GeoLite2
162.120.193.150/32,US,United States,Ohio,Cleveland,41.5,-81.6938,IPv4,1,US,US-OH,Cleveland,MaxMind GeoLite2
162.120.193.151/32,US,United States,Ohio,Columbus,39.9625,-83.0061,IPv4,1,US,US-OH,Columbus,MaxMind GeoLite2
162.120.193.152/32,US,United States,Ohio,Cuyahoga Falls,41.1353,-81.4817,IPv4,1,US,US-OH,Cuyahoga Falls,MaxMind GeoLite2
162.120.193.153/32,US,United States,Ohio,Huber Heights,39.8378,-84.1111,IPv4,1,US,US-OH,Huber Heights,MaxMind GeoLite2
162.120.193.154/32,US,United States,Ohio,Kettering,39.6823,-84.1594,IPv4,1,US,US-OH,Kettering,MaxMind GeoLite2
162.120.193.155/32,US,United States,Ohio,Lancaster,39.7184,-82.6073,IPv4,1,US,US-OH,Lancaster,MaxMind GeoLite2
162.120.193.156/32,US,United States,Ohio,Lorain,41.46,-82.1748,IPv4,1,US,US-OH,Lorain,MaxMind GeoLite2
162.120.193.157/32,US,United States,Ohio,Mentor,41.6581,-81.3378,IPv4,1,US,US-OH,Mentor,MaxMind GeoLite2
162.120.193.158/32,US,United States,Ohio,New Albany,40.0847,-82.7988,IPv4,1,US,US-OH,New Albany,MaxMind GeoLite2
162.120.193.159/32,US,United States,Ohio,Newark,40.0588,-82.3963,IPv4,1,US,US-OH,Newark,MaxMind GeoLite2
162.120.193.160/32,US,United States,Ohio,Parma,41.4048,-81.7229,IPv4,1,US,US-OH,Parma,MaxMind GeoLite2
162.120.193.161/32,US,United States,Ohio,Reynoldsburg,39.9581,-82.8068,IPv4,1,US,US-OH,Reynoldsburg,MaxMind GeoLite2
162.120.193.162/32,US,United States,Ohio,Springfield,39.926,-83.8081,IPv4,1,US,US-OH,Springfield,MaxMind GeoLite2
162.120.193.163/32,US,United States,Ohio,Strongsville,41.3187,-81.8318,IPv4,1,US,US-OH,Strongsville,MaxMind GeoLite2
162.120.193.164/32,US,United States,Ohio,Youngstown,41.1067,-80.6466,IPv4,1,US,US-OH,Youngstown,MaxMind GeoLite2
162.120.193.165/32,US,United States,Pennsylvania,Allentown,40.6096,-75.495,IPv4,1,US,US-PA,Allentown,MaxMind GeoLite2
162.120.193.166/32,US,United States,Pennsylvania,Altoona,40.5222,-78.4034,IPv4,1,US,US-PA,Altoona,MaxMind GeoLite2
162.120.193.167/32,US,United States,Pennsylvania,Broomall,39.9846,-75.3514,IPv4,1,US,US-PA,Broomall,MaxMind GeoLite2
162.120.193.168/32,US,United States,Pennsylvania,Chambersburg,39.9301,-77.6601,IPv4,1,US,US-PA,Chambersburg,MaxMind GeoLite2
162.120.193.169/32,US,United States,Pennsylvania,Colonial Park,40.2927,-76.817,IPv4,1,US,US-PA,Colonial Park,MaxMind GeoLite2
162.120.193.170/32,US,United States,Pennsylvania,Drexel Hill,39.9526,-75.2937,IPv4,1,US,US-PA,Drexel Hill,MaxMind GeoLite2
162.120.193.171/32,US,United States,Pennsylvania,Erie,42.1297,-80.0846,IPv4,1,US,US-PA,Erie,MaxMind GeoLite2
162.120.193.172/32,US,United States,Pennsylvania,Greensburg,40.3023,-79.5396,IPv4,1,US,US-PA,Greensburg,MaxMind GeoLite2
162.120.193.173/32,US,United States,Pennsylvania,Harrisburg,40.2655,-76.8812,IPv4,1,US,US-PA,Harrisburg,MaxMind GeoLite2
162.120.193.174/32,US,United States,Pennsylvania,Lancaster,40.045,-76.3003,IPv4,1,US,US-PA,Lancaster,MaxMind GeoLite2
162.120.193.175/32,US,United States,Pennsylvania,Lansdale,40.2363,-75.296,IPv4,1,US,US-PA,Lansdale,MaxMind GeoLite2
162.120.193.176/32,US,United States,Pennsylvania,Levittown,40.1519,-74.8347,IPv4,1,US,US-PA,Levittown,MaxMind GeoLite2
162.120.193.177/32,US,United States,Pennsylvania,Mechanicsburg,40.2127,-77.0213,IPv4,1,US,US-PA,Mechanicsburg,MaxMind GeoLite2
162.120.193.178/32,US,United States,Pennsylvania,Monroeville,40.4212,-79.7881,IPv4,1,US,US-PA,Monroeville,MaxMind GeoLite2
162.120.193.179/32,US,United States,Pennsylvania,Norristown,40.1215,-75.3269,IPv4,1,US,US-PA,Norristown,MaxMind GeoLite2
162.120.193.180/32,US,United States,Pennsylvania,Philadelphia,39.952,-75.1649,IPv4,1,US,US-PA,Philadelphia,MaxMind GeoLite2
162.120.193.181/32,US,United States,Pennsylvania,Pittsburgh,40.4422,-79.9927,IPv4,1,US,US-PA,Pittsburgh,MaxMind GeoLite2
162.120.193.182/32,US,United States,Pennsylvania,Reading,40.3362,-75.9153,IPv4,1,US,US-PA,Reading,MaxMind GeoLite2
162.120.193.183/32,US,United States,Pennsylvania,Ross Township,40.5211,-80.0404,IPv4,1,US,US-PA,Ross Township,MaxMind GeoLite2
162.120.193.184/32,US,United States,Pennsylvania,Scranton,41.4115,-75.6694,IPv4,1,US,US-PA,Scranton,MaxMind GeoLite2
162.120.193.185/32,US,United States,Pennsylvania,State College,40.7954,-77.8614,IPv4,1,US,US-PA,State College,MaxMind GeoLite2
162.120.193.186/32,US,United States,Pennsylvania,Stroudsburg,40.9868,-75.1946,IPv4,1,US,US-PA,Stroudsburg,MaxMind GeoLite2
162.120.193.187/32,US,United States,Pennsylvania,Warminster,40.207,-75.0744,IPv4,1,US,US-PA,Warminster,MaxMind GeoLite2
162.120.193.188/32,US,United States,Pennsylvania,West Goshen,39.9659,-75.5788,IPv4,1,US,US-PA,West Goshen,MaxMind GeoLite2
162.120.193.189/32,US,United States,Rhode Island,Providence,41.8268,-71.4142,IPv4,1,US,US-RI,Providence,MaxMind GeoLite2
162.120.193.190/32,US,United States,Rhode Island,Warwick,41.6975,-71.4128,IPv4,1,US,US-RI,Warwick,MaxMind GeoLite2
162.120.193.191/32,US,United States,South Carolina,Anderson,34.4993,-82.6575,IPv4,1,US,US-SC,Anderson,MaxMind GeoLite2
162.120.193.192/32,US,United States,South Carolina,Charleston,32.7771,-79.9305,IPv4,1,US,US-SC,Charleston,MaxMind GeoLite2
162.120.193.193/32,US,United States,South Carolina,Columbia,34.0007,-81.0348,IPv4,1,US,US-SC,Columbia,MaxMind GeoLite2
162.120.193.194/32,US,United States,South Carolina,Florence,34.1847,-79.7704,IPv4,1,US,US-SC,Florence,MaxMind GeoLite2
162.120.193.195/32,US,United States,South Carolina,Greenville,34.8549,-82.3946,IPv4,1,US,US-SC,Greenville,MaxMind GeoLite2
162.120.193.196/32,US,United States,South Carolina,Lexington,33.9842,-81.2365,IPv4,1,US,US-SC,Lexington,MaxMind GeoLite2
162.120.193.197/32,US,United States,South Carolina,Myrtle Beach,33.6988,-78.916,IPv4,1,US,US-SC,Myrtle Beach,MaxMind GeoLite2
162.120.193.198/32,US,United States,South Carolina,Rock Hill,34.9151,-81.0129,IPv4,1,US,US-SC,Rock Hill,MaxMind GeoLite2
162.120.193.199/32,US,United States,Tennessee,Chattanooga,35.0454,-85.3089,IPv4,1,US,US-TN,Chattanooga,MaxMind GeoLite2
162.120.193.200/32,US,United States,Tennessee,Johnson City,36.3125,-82.377,IPv4,1,US,US-TN,Johnson City,MaxMind GeoLite2
162.120.193.201/32,US,United States,Virginia,Alexandria,38.8078,-77.0523,IPv4,1,US,US-VA,Alexandria,MaxMind GeoLite2
162.120.193.202/32,US,United States,Virginia,Arlington,38.884,-77.1054,IPv4,1,US,US-VA,Arlington,MaxMind GeoLite2
162.120.193.203/32,US,United States,Virginia,Ashburn,39.0469,-77.4903,IPv4,1,US,US-VA,Ashburn,MaxMind GeoLite2
162.120.193.204/32,US,United States,Virginia,Boydton,36.6676,-78.3875,IPv4,1,US,US-VA,Boydton,MaxMind GeoLite2
162.120.193.205/32,US,United States,Virginia,Burke,38.7913,-77.2806,IPv4,1,US,US-VA,Burke,MaxMind GeoLite2
162.120.193.206/32,US,United States,Virginia,Charlottesville,38.0271,-78.4797,IPv4,1,US,US-VA,Charlottesville,MaxMind GeoLite2
162.120.193.207/32,US,United States,Virginia,Chesapeake,36.803,-76.2744,IPv4,1,US,US-VA,Chesapeake,MaxMind GeoLite2
162.120.193.208/32,US,United States,Virginia,Chester,37.3392,-77.4175,IPv4,1,US,US-VA,Chester,MaxMind GeoLite2
162.120.193.209/32,US,United States,Virginia,Dale City,38.6371,-77.3111,IPv4,1,US,US-VA,Dale City,MaxMind GeoLite2
162.120.193.210/32,US,United States,Virginia,Fredericksburg,38.2999,-77.465,IPv4,1,US,US-VA,Fredericksburg,MaxMind GeoLite2
162.120.193.211/32,US,United States,Virginia,McLean,38.9363,-77.1698,IPv4,1,US,US-VA,McLean,MaxMind GeoLite2
162.120.193.212/32,US,United States,Virginia,Mount Vernon,38.719,-77.1067,IPv4,1,US,US-VA,Mount Vernon,MaxMind GeoLite2
162.120.193.213/32,US,United States,Virginia,Newport News,36.9886,-76.4143,IPv4,1,US,US-VA,Newport News,MaxMind GeoLite2
162.120.193.214/32,US,United States,Virginia,Norfolk,36.8429,-76.2864,IPv4,1,US,US-VA,Norfolk,MaxMind GeoLite2
162.120.193.215/32,US,United States,Virginia,Reston,38.9609,-77.3429,IPv4,1,US,US-VA,Reston,MaxMind GeoLite2
162.120.193.216/32,US,United States,Virginia,Roanoke,37.2681,-79.9404,IPv4,1,US,US-VA,Roanoke,MaxMind GeoLite2
162.120.193.217/32,US,United States,Virginia,Sandston,37.5235,-77.3158,IPv4,1,US,US-VA,Sandston,MaxMind GeoLite2
162.120.193.218/32,US,United States,Virginia,Tuckahoe,37.5902,-77.5564,IPv4,1,US,US-VA,Tuckahoe,MaxMind GeoLite2
162.120.193.219/32,US,United States,Virginia,Virginia Beach,36.8566,-75.9832,IPv4,1,US,US-VA,Virginia Beach,MaxMind GeoLite2
162.120.193.220/32,US,United States,Virginia,Washington,38.7095,-78.1539,IPv4,1,US,US-VA,Washington,MaxMind GeoLite2
162.120.193.221/32,US,United States,Vermont,Burlington,44.4829,-73.2253,IPv4,1,US,US-VT,Burlington,MaxMind GeoLite2
162.120.193.222/32,US,United States,West Virginia,Beckley,37.7932,-81.2061,IPv4,1,US,US-WV,Beckley,MaxMind GeoLite2
162.120.193.223/32,US,United States,West Virginia,Huntington,38.425,-82.4469,IPv4,1,US,US-WV,Huntington,MaxMind GeoLite2
162.120.193.224/32,US,United States,West Virginia,Morgantown,39.6302,-79.9606,IPv4,1,US,US-WV,Morgantown,MaxMind GeoLite2
162.120.193.225/32,BL,Saint Barthélemy,,,17.9038,-62.8348,IPv4,1,BL,,,MaxMind GeoLite2
162.120.193.226/32,CM,Cameroon,,,6.0,12.5,IPv4,1,CM,,,MaxMind GeoLite2
162.120.193.227/32,GQ,Equatorial Guinea,,,1.7,10.5,IPv4,1,GQ,,,MaxMind GeoLite2
162.120.193.228/32,KN,St Kitts and Nevis,,,17.3332,-62.753,IPv4,1,KN,,,MaxMind GeoLite2
162.120.193.229/32,MF,Saint Martin,,,18.0658,-63.0626,IPv4,1,MF,,,MaxMind GeoLite2
162.120.193.230/32,PR,Puerto Rico,,,18.25,-66.5,IPv4,1,PR,,,MaxMind GeoLite2
162.120.193.231/32,VC,St Vincent and Grenadines,,,13.0833,-61.2,IPv4,1,VC,,,MaxMind GeoLite2
162.120.193.232/32,CA,Canada,Ontario,London,42.9856,-81.2348,IPv4,1,CA,CA-ON,London,MaxMind GeoLite2
162.120.194.0/32,US,United States,,,37.751,-97.822,IPv4,1,US,,,MaxMind GeoLite2
162.120.194.1/32,US,United States,Alabama,Alabaster,33.2443,-86.8164,IPv4,1,US,US-AL,Alabaster,MaxMind GeoLite2
162.120.194.2/32,US,United States,Alabama,Auburn,32.6098,-85.4768,IPv4,1,US,US-AL,Auburn,MaxMind GeoLite2
162.120.194.3/32,US,United States,Alabama,Birmingham,33.5226,-86.8033,IPv4,1,US,US-AL,Birmingham,MaxMind GeoLite2
162.120.194.4/32,US,United States,Alabama,Daphne,30.6035,-87.9036,IPv4,1,US,US-AL,Daphne,MaxMind GeoLite2
162.120.194.5/32,US,United States,Alabama,Decatur,34.607,-86.9912,IPv4,1,US,US-AL,Decatur,MaxMind GeoLite2
162.120.194.6/32,US,United States,Alabama,Dothan,31.2343,-85.3938,IPv4,1,US,US-AL,Dothan,MaxMind GeoLite2
162.120.194.7/32,US,United States,Alabama,Gadsden,34.0111,-85.9977,IPv4,1,US,US-AL,Gadsden,MaxMind GeoLite2
162.120.194.8/32,US,United States,Alabama,Hoover,33.395,-86.8348,IPv4,1,US,US-AL,Hoover,MaxMind GeoLite2
162.120.194.9/32,US,United States,Alabama,Huntsville,34.7281,-86.5878,IPv4,1,US,US-AL,Huntsville,MaxMind GeoLite2
162.120.194.10/32,US,United States,Alabama,Mobile,30.6922,-88.0425,IPv4,1,US,US-AL,Mobile,MaxMind GeoLite2
162.120.194.11/32,US,United States,Alabama,Montgomery,32.3649,-86.2991,IPv4,1,US,US-AL,Montgomery,MaxMind GeoLite2
162.120.194.12/32,US,United States,Alabama,Trussville,33.6198,-86.6089,IPv4,1,US,US-AL,Trussville,MaxMind GeoLite2
162.120.194.13/32,US,United States,Alabama,Tuscaloosa,33.2154,-87.5698,IPv4,1,US,US-AL,Tuscaloosa,MaxMind GeoLite2
162.120.194.14/32,US,United States,Arkansas,Fayetteville,36.0613,-94.1523,IPv4,1,US,US-AR,Fayetteville,MaxMind GeoLite2
162.120.194.15/32,US,United States,Arkansas,Fort Smith,35.3879,-94.3996,IPv4,1,US,US-AR,Fort Smith,MaxMind GeoLite2
162.120.194.16/32,US,United States,Arkansas,Rogers,36.3293,-94.1136,IPv4,1,US,US-AR,Rogers,MaxMind GeoLite2
162.120.194.17/32,US,United States,Florida,Altamonte Springs,28.6616,-81.3687,IPv4,1,US,US-FL,Altamonte Springs,MaxMind GeoLite2
162.120.194.18/32,US,United States,Florida,Apopka,28.6773,-81.5085,IPv4,1,US,US-FL,Apopka,MaxMind GeoLite2
162.120.194.19/32,US,United States,Florida,Boca Raton,26.3594,-80.0771,IPv4,1,US,US-FL,Boca Raton,MaxMind GeoLite2
162.120.194.20/32,US,United States,Florida,Bradenton,27.5025,-82.575,IPv4,1,US,US-FL,Bradenton,MaxMind GeoLite2
162.120.194.21/32,US,United States,Florida,Brandon,27.9321,-82.2904,IPv4,1,US,US-FL,Brandon,MaxMind GeoLite2
162.120.194.22/32,US,United States,Florida,Cape Coral,26.5661,-81.9506,IPv4,1,US,US-FL,Cape Coral,MaxMind GeoLite2
162.120.194.23/32,US,United States,Florida,Clearwater,27.947,-82.7943,IPv4,1,US,US-FL,Clearwater,MaxMind GeoLite2
162.120.194.24/32,US,United States,Florida,Clermont,28.5478,-81.7688,IPv4,1,US,US-FL,Clermont,MaxMind GeoLite2
162.120.194.25/32,US,United States,Florida,Coral Springs,26.2685,-80.2717,IPv4,1,US,US-FL,Coral Springs,MaxMind GeoLite2
162.120.194.26/32,US,United States,Florida,Crestview,30.7617,-86.5883,IPv4,1,US,US-FL,Crestview,MaxMind GeoLite2
162.120.194.27/32,US,United States,Florida,Davie,26.0703,-80.2248,IPv4,1,US,US-FL,Davie,MaxMind GeoLite2
162.120.194.28/32,US,United States,Florida,Daytona Beach,29.2119,-81.0184,IPv4,1,US,US-FL,Daytona Beach,MaxMind GeoLite2
162.120.194.29/32,US,United States,Florida,Doral,25.8153,-80.3577,IPv4,1,US,US-FL,Doral,MaxMind GeoLite2
162.120.194.30/32,US,United States,Florida,Fort Myers,26.6207,-81.8325,IPv4,1,US,US-FL,Fort Myers,MaxMind GeoLite2
162.120.194.31/32,US,United States,Florida,Four Corners,28.3313,-81.6471,IPv4,1,US,US-FL,Four Corners,MaxMind GeoLite2
162.120.194.32/32,US,United States,Florida,Fort Lauderdale,26.1185,-80.145,IPv4,1,US,US-FL,Fort Lauderdale,MaxMind GeoLite2
162.120.194.33/32,US,United States,Florida,Gainesville,29.6467,-82.3284,IPv4,1,US,US-FL,Gainesville,MaxMind GeoLite2
162.120.194.34/32,US,United States,Florida,Hialeah,25.8539,-80.2677,IPv4,1,US,US-FL,Hialeah,MaxMind GeoLite2
162.120.194.35/32,US,United States,Florida,Hollywood,26.0119,-80.1435,IPv4,1,US,US-FL,Hollywood,MaxMind GeoLite2
162.120.194.36/32,US,United States,Florida,Homestead,25.4785,-80.4844,IPv4,1,US,US-FL,Homestead,MaxMind GeoLite2
162.120.194.37/32,US,United States,Florida,Hunters Creek,28.3597,-81.4207,IPv4,1,US,US-FL,Hunters Creek,MaxMind GeoLite2
162.120.194.38/32,US,United States,Florida,Jacksonville,30.3337,-81.6542,IPv4,1,US,US-FL,Jacksonville,MaxMind GeoLite2
162.120.194.39/32,US,United States,Florida,Kendall,25.6922,-80.3165,IPv4,1,US,US-FL,Kendall,MaxMind GeoLite2
162.120.194.40/32,US,United States,Florida,Kissimmee,28.3056,-81.4197,IPv4,1,US,US-FL,Kissimmee,MaxMind GeoLite2
162.120.194.41/32,US,United States,Florida,Lakeland,28.0395,-81.9498,IPv4,1,US,US-FL,Lakeland,MaxMind GeoLite2
162.120.194.42/32,US,United States,Florida,Lakewood Ranch,27.3874,-82.429,IPv4,1,US,US-FL,Lakewood Ranch,MaxMind GeoLite2
162.120.194.43/32,US,United States,Florida,Melbourne,28.0855,-80.6041,IPv4,1,US,US-FL,Melbourne,MaxMind GeoLite2
162.120.194.44/32,US,United States,Florida,Miami,25.7701,-80.1928,IPv4,1,US,US-FL,Miami,MaxMind GeoLite2
162.120.194.45/32,US,United States,Florida,Miramar,25.98,-80.2305,IPv4,1,US,US-FL,Miramar,MaxMind GeoLite2
162.120.194.46/32,US,United States,Florida,Naples,26.1357,-81.7908,IPv4,1,US,US-FL,Naples,MaxMind GeoLite2
162.120.194.47/32,US,United States,Florida,North Miami,25.8906,-80.1784,IPv4,1,US,US-FL,North Miami,MaxMind GeoLite2
162.120.194.48/32,US,United States,Florida,North Naples,26.2211,-81.7957,IPv4,1,US,US-FL,North Naples,MaxMind GeoLite2
162.120.194.49/32,US,United States,Florida,North Port,27.0476,-82.2377,IPv4,1,US,US-FL,North Port,MaxMind GeoLite2
162.120.194.50/32,US,United States,Florida,Ocala,29.1907,-82.1422,IPv4,1,US,US-FL,Ocala,MaxMind GeoLite2
162.120.194.51/32,US,United States,Florida,Ojus,25.9442,-80.1406,IPv4,1,US,US-FL,Ojus,MaxMind GeoLite2
162.120.194.52/32,US,United States,Florida,Orlando,28.5436,-81.3738,IPv4,1,US,US-FL,Orlando,MaxMind GeoLite2
162.120.194.53/32,US,United States,Florida,Oviedo,28.6529,-81.2106,IPv4,1,US,US-FL,Oviedo,MaxMind GeoLite2
162.120.194.54/32,US,United States,Florida,Panama City,30.1574,-85.6561,IPv4,1,US,US-FL,Panama City,MaxMind GeoLite2
162.120.194.55/32,US,United States,Florida,Pembroke Pines,26.0003,-80.2213,IPv4,1,US,US-FL,Pembroke Pines,MaxMind GeoLite2
162.120.194.56/32,US,United States,Florida,Pensacola,30.4199,-87.217,IPv4,1,US,US-FL,Pensacola,MaxMind GeoLite2
162.120.194.57/32,US,United States,Florida,Pinellas Park,27.8407,-82.7155,IPv4,1,US,US-FL,Pinellas Park,MaxMind GeoLite2
162.120.194.58/32,US,United States,Florida,Port St. Lucie,27.9528,-81.727,IPv4,1,US,US-FL,Port St. Lucie,MaxMind GeoLite2
162.120.194.59/32,US,United States,Florida,Riverview,27.8672,-82.3503,IPv4,1,US,US-FL,Riverview,MaxMind GeoLite2
162.120.194.60/32,US,United States,Florida,Rockledge,28.3525,-80.7213,IPv4,1,US,US-FL,Rockledge,MaxMind GeoLite2
162.120.194.61/32,US,United States,Florida,Saint Johns,29.9122,-81.4074,IPv4,1,US,US-FL,Saint Johns,MaxMind GeoLite2
162.120.194.62/32,US,United States,Florida,Sanford,28.7935,-81.2868,IPv4,1,US,US-FL,Sanford,MaxMind GeoLite2
162.120.194.63/32,US,United States,Florida,Spring Hill,28.4797,-82.5126,IPv4,1,US,US-FL,Spring Hill,MaxMind GeoLite2
162.120.194.64/32,US,United States,Florida,St. Petersburg,27.7691,-82.6759,IPv4,1,US,US-FL,St. Petersburg,MaxMind GeoLite2
162.120.194.65/32,US,United States,Florida,Tallahassee,30.4366,-84.2764,IPv4,1,US,US-FL,Tallahassee,MaxMind GeoLite2
162.120.194.66/32,US,United States,Florida,Tamiami,25.7574,-80.4039,IPv4,1,US,US-FL,Tamiami,MaxMind GeoLite2
162.120.194.67/32,US,United States,Florida,Tampa,27.9455,-82.4598,IPv4,1,US,US-FL,Tampa,MaxMind GeoLite2
162.120.194.68/32,US,United States,Florida,Town 'n' Country,28.0117,-82.582,IPv4,1,US,US-FL,Town 'n' Country,MaxMind GeoLite2
162.120.194.69/32,US,United States,Florida,Trinity,28.1847,-82.6825,IPv4,1,US,US-FL,Trinity,MaxMind GeoLite2
162.120.194.70/32,US,United States,Florida,Lake Magdalene,28.0763,-82.4852,IPv4,1,US,US-FL,Lake Magdalene,MaxMind GeoLite2
162.120.194.71/32,US,United States,Florida,Wellington,26.6598,-80.2429,IPv4,1,US,US-FL,Wellington,MaxMind GeoLite2
162.120.194.72/32,US,United States,Florida,Wesley Chapel,28.2365,-82.3289,IPv4,1,US,US-FL,Wesley Chapel,MaxMind GeoLite2
162.120.194.73/32,US,United States,Florida,West Palm Beach,26.7158,-80.0491,IPv4,1,US,US-FL,West Palm Beach,MaxMind GeoLite2
162.120.194.74/32,US,United States,Florida,Winter Haven,28.0253,-81.7395,IPv4,1,US,US-FL,Winter Haven,MaxMind GeoLite2
162.120.194.75/32,US,United States,Georgia,Acworth,34.0782,-84.6485,IPv4,1,US,US-GA,Acworth,MaxMind GeoLite2
162.120.194.76/32,US,United States,Georgia,Albany,31.58,-84.1464,IPv4,1,US,US-GA,Albany,MaxMind GeoLite2
162.120.194.77/32,US,United States,Georgia,Atlanta,33.7485,-84.3871,IPv4,1,US,US-GA,Atlanta,MaxMind GeoLite2
162.120.194.78/32,US,United States,Georgia,Augusta,33.4741,-81.9809,IPv4,1,US,US-GA,Augusta,MaxMind GeoLite2
162.120.194.79/32,US,United States,Georgia,Columbus,32.4581,-84.9963,IPv4,1,US,US-GA,Columbus,MaxMind GeoLite2
162.120.194.80/32,US,United States,Georgia,Dacula,33.9916,-83.8901,IPv4,1,US,US-GA,Dacula,MaxMind GeoLite2
162.120.194.81/32,US,United States,Georgia,Dalton,34.7699,-84.9796,IPv4,1,US,US-GA,Dalton,MaxMind GeoLite2
162.120.194.82/32,US,United States,Georgia,Decatur,33.7747,-84.2961,IPv4,1,US,US-GA,Decatur,MaxMind GeoLite2
162.120.194.83/32,US,United States,Georgia,Douglasville,33.7527,-84.747,IPv4,1,US,US-GA,Douglasville,MaxMind GeoLite2
162.120.194.84/32,US,United States,Georgia,East Point,33.6728,-84.4357,IPv4,1,US,US-GA,East Point,MaxMind GeoLite2
162.120.194.85/32,US,United States,Georgia,Gainesville,34.3089,-83.8249,IPv4,1,US,US-GA,Gainesville,MaxMind GeoLite2
162.120.194.86/32,US,United States,Georgia,Johns Creek,34.026,-84.1999,IPv4,1,US,US-GA,Johns Creek,MaxMind GeoLite2
162.120.194.87/32,US,United States,Georgia,Lawrenceville,33.9482,-83.9944,IPv4,1,US,US-GA,Lawrenceville,MaxMind GeoLite2
162.120.194.88/32,US,United States,Georgia,Macon,32.8438,-83.6266,IPv4,1,US,US-GA,Macon,MaxMind GeoLite2
162.120.194.89/32,US,United States,Georgia,Marietta,33.9521,-84.5475,IPv4,1,US,US-GA,Marietta,MaxMind GeoLite2
162.120.194.90/32,US,United States,Georgia,Riverdale,33.5619,-84.4319,IPv4,1,US,US-GA,Riverdale,MaxMind GeoLite2
162.120.194.91/32,US,United States,Georgia,Roswell,34.017,-84.3573,IPv4,1,US,US-GA,Roswell,MaxMind GeoLite2
162.120.194.92/32,US,United States,Georgia,Sandy Springs,33.9238,-84.3869,IPv4,1,US,US-GA,Sandy Springs,MaxMind GeoLite2
162.120.194.93/32,US,United States,Georgia,Savannah,32.0856,-81.0964,IPv4,1,US,US-GA,Savannah,MaxMind GeoLite2
162.120.194.94/32,US,United States,Georgia,Smyrna,33.8775,-84.5017,IPv4,1,US,US-GA,Smyrna,MaxMind GeoLite2
162.120.194.95/32,US,United States,Georgia,Social Circle,33.6562,-83.7182,IPv4,1,US,US-GA,Social Circle,MaxMind GeoLite2
162.120.194.96/32,US,United States,Georgia,South Fulton,33.5954,-84.6581,IPv4,1,US,US-GA,South Fulton,MaxMind GeoLite2
162.120.194.97/32,US,United States,Georgia,Statesboro,32.4509,-81.7715,IPv4,1,US,US-GA,Statesboro,MaxMind GeoLite2
162.120.194.98/32,US,United States,Georgia,Stockbridge,33.5443,-84.2338,IPv4,1,US,US-GA,Stockbridge,MaxMind GeoLite2
162.120.194.99/32,US,United States,Georgia,Tucker,33.8583,-84.2165,IPv4,1,US,US-GA,Tucker,MaxMind GeoLite2
162.120.194.100/32,US,United States,Georgia,Valdosta,30.8491,-83.2881,IPv4,1,US,US-GA,Valdosta,MaxMind GeoLite2
162.120.194.101/32,US,United States,Georgia,Warner Robins,32.6438,-83.6354,IPv4,1,US,US-GA,Warner Robins,MaxMind GeoLite2
162.120.194.102/32,US,United States,Georgia,Woodstock,34.1078,-84.5026,IPv4,1,US,US-GA,Woodstock,MaxMind GeoLite2
162.120.194.103/32,US,United States,Indiana,Bloomington,39.1706,-86.5191,IPv4,1,US,US-IN,Bloomington,MaxMind GeoLite2
162.120.194.104/32,US,United States,Indiana,English,38.3345,-86.4642,IPv4,1,US,US-IN,English,MaxMind GeoLite2
162.120.194.105/32,US,United States,Indiana,Petersburg,38.4792,-87.2834,IPv4,1,US,US-IN,Petersburg,MaxMind GeoLite2
162.120.194.106/32,US,United States,Indiana,Vevay,38.7409,-85.0613,IPv4,1,US,US-IN,Vevay,MaxMind GeoLite2
162.120.194.107/32,US,United States,Kentucky,Bowling Green,37.019,-86.4537,IPv4,1,US,US-KY,Bowling Green,MaxMind GeoLite2
162.120.194.108/32,US,United States,Kentucky,Covington,39.0705,-84.516,IPv4,1,US,US-KY,Covington,MaxMind GeoLite2
162.120.194.109/32,US,United States,Kentucky,Erlanger,39.0055,-84.6006,IPv4,1,US,US-KY,Erlanger,MaxMind GeoLite2
162.120.194.110/32,US,United States,Kentucky,Florence,38.9924,-84.6462,IPv4,1,US,US-KY,Florence,MaxMind GeoLite2
162.120.194.111/32,US,United States,Kentucky,Lexington,37.9874,-84.4804,IPv4,1,US,US-KY,Lexington,MaxMind GeoLite2
162.120.194.112/32,US,United States,Kentucky,Louisville,38.2539,-85.76,IPv4,1,US,US-KY,Louisville,MaxMind GeoLite2
162.120.194.113/32,US,United States,Kentucky,Paducah,37.0368,-88.5934,IPv4,1,US,US-KY,Paducah,MaxMind GeoLite2
162.120.194.114/32,US,United States,Kentucky,Richmond,37.7433,-84.2895,IPv4,1,US,US-KY,Richmond,MaxMind GeoLite2
162.120.194.115/32,US,United States,Kentucky,Shelbyville,38.2145,-85.2254,IPv4,1,US,US-KY,Shelbyville,MaxMind GeoLite2
162.120.194.116/32,US,United States,Louisiana,Baton Rouge,30.4488,-91.1837,IPv4,1,US,US-LA,Baton Rouge,MaxMind GeoLite2
162.120.194.117/32,US,United States,Louisiana,Central,30.5595,-91.0391,IPv4,1,US,US-LA,Central,MaxMind GeoLite2
162.120.194.118/32,US,United States,Louisiana,Lafayette,30.2225,-92.0247,IPv4,1,US,US-LA,Lafayette,MaxMind GeoLite2
162.120.194.119/32,US,United States,Louisiana,Metairie,29.9828,-90.156,IPv4,1,US,US-LA,Metairie,MaxMind GeoLite2
162.120.194.120/32,US,United States,Louisiana,Monroe,32.505,-92.1239,IPv4,1,US,US-LA,Monroe,MaxMind GeoLite2
162.120.194.121/32,US,United States,Louisiana,New Orleans,29.953,-90.0764,IPv4,1,US,US-LA,New Orleans,MaxMind GeoLite2
162.120.194.122/32,US,United States,Louisiana,Shreveport,32.5275,-93.7492,IPv4,1,US,US-LA,Shreveport,MaxMind GeoLite2
162.120.194.123/32,US,United States,Louisiana,Slidell,30.2761,-89.7852,IPv4,1,US,US-LA,Slidell,MaxMind GeoLite2
162.120.194.124/32,US,United States,Mississippi,Biloxi,30.3925,-88.8803,IPv4,1,US,US-MS,Biloxi,MaxMind GeoLite2
162.120.194.125/32,US,United States,Mississippi,Hattiesburg,31.308,-89.3064,IPv4,1,US,US-MS,Hattiesburg,MaxMind GeoLite2
162.120.194.126/32,US,United States,Mississippi,Jackson,32.3012,-90.1834,IPv4,1,US,US-MS,Jackson,MaxMind GeoLite2
162.120.194.127/32,US,United States,Mississippi,Oxford,34.3625,-89.5273,IPv4,1,US,US-MS,Oxford,MaxMind GeoLite2
162.120.194.128/32,US,United States,Mississippi,Tupelo,34.2515,-88.7208,IPv4,1,US,US-MS,Tupelo,MaxMind GeoLite2
162.120.194.129/32,US,United States,North Carolina,Asheville,35.5947,-82.5545,IPv4,1,US,US-NC,Asheville,MaxMind GeoLite2
162.120.194.130/32,US,United States,North Carolina,Burlington,36.1287,-79.4086,IPv4,1,US,US-NC,Burlington,MaxMind GeoLite2
162.120.194.131/32,US,United States,North Carolina,Cary,35.7965,-78.7981,IPv4,1,US,US-NC,Cary,MaxMind GeoLite2
162.120.194.132/32,US,United States,North Carolina,Charlotte,35.2296,-80.843,IPv4,1,US,US-NC,Charlotte,MaxMind GeoLite2
162.120.194.133/32,US,United States,North Carolina,Concord,35.4155,-80.6143,IPv4,1,US,US-NC,Concord,MaxMind GeoLite2
162.120.194.134/32,US,United States,North Carolina,Fayetteville,35.059,-78.9039,IPv4,1,US,US-NC,Fayetteville,MaxMind GeoLite2
162.120.194.135/32,US,United States,North Carolina,Forest City,35.334,-81.8651,IPv4,1,US,US-NC,Forest City,MaxMind GeoLite2
162.120.194.136/32,US,United States,North Carolina,Franklin,35.1829,-83.3865,IPv4,1,US,US-NC,Franklin,MaxMind GeoLite2
162.120.194.137/32,US,United States,North Carolina,Fort Liberty,35.1407,-79.0032,IPv4,1,US,US-NC,Fort Bragg,MaxMind GeoLite2
162.120.194.138/32,US,United States,North Carolina,Gastonia,35.2912,-81.1943,IPv4,1,US,US-NC,Gastonia,MaxMind GeoLite2
162.120.194.139/32,US,United States,North Carolina,Goldsboro,35.349,-77.9619,IPv4,1,US,US-NC,Goldsboro,MaxMind GeoLite2
162.120.194.140/32,US,United States,North Carolina,Greensboro,36.0765,-79.7947,IPv4,1,US,US-NC,Greensboro,MaxMind GeoLite2
162.120.194.141/32,US,United States,North Carolina,Greenville,35.6218,-77.396,IPv4,1,US,US-NC,Greenville,MaxMind GeoLite2
162.120.194.142/32,US,United States,North Carolina,Hendersonville,35.32,-82.5028,IPv4,1,US,US-NC,Hendersonville,MaxMind GeoLite2
162.120.194.143/32,US,United States,North Carolina,Hickory,35.7532,-81.3264,IPv4,1,US,US-NC,Hickory,MaxMind GeoLite2
162.120.194.144/32,US,United States,North Carolina,High Point,35.9507,-79.9792,IPv4,1,US,US-NC,High Point,MaxMind GeoLite2
162.120.194.145/32,US,United States,North Carolina,Monroe,35.0122,-80.5598,IPv4,1,US,US-NC,Monroe,MaxMind GeoLite2
162.120.194.146/32,US,United States,North Carolina,Morganton,35.7464,-81.6774,IPv4,1,US,US-NC,Morganton,MaxMind GeoLite2
162.120.194.147/32,US,United States,North Carolina,Raleigh,35.7704,-78.6293,IPv4,1,US,US-NC,Raleigh,MaxMind GeoLite2
162.120.194.148/32,US,United States,North Carolina,Wilmington,34.2283,-77.9519,IPv4,1,US,US-NC,Wilmington,MaxMind GeoLite2
162.120.194.149/32,US,United States,North Carolina,Wilson,35.7274,-77.9228,IPv4,1,US,US-NC,Wilson,MaxMind GeoLite2
162.120.194.150/32,US,United States,North Carolina,Winston-Salem,36.0976,-80.2365,IPv4,1,US,US-NC,Winston-Salem,MaxMind GeoLite2
162.120.194.151/32,US,United States,Ohio,Cincinnati,39.1256,-84.5127,IPv4,1,US,US-OH,Cincinnati,MaxMind GeoLite2
162.120.194.152/32,US,United States,Ohio,Hamilton,39.4025,-84.522,IPv4,1,US,US-OH,Hamilton,MaxMind GeoLite2
162.120.194.153/32,US,United States,Ohio,Harrison,39.262,-84.82,IPv4,1,US,US-OH,Harrison,MaxMind GeoLite2
162.120.194.154/32,US,United States,Ohio,Mason,39.3601,-84.3099,IPv4,1,US,US-OH,Mason,MaxMind GeoLite2
162.120.194.155/32,US,United States,Oklahoma,Broken Arrow,36.0523,-95.7803,IPv4,1,US,US-OK,Broken Arrow,MaxMind GeoLite2
162.120.194.156/32,US,United States,Oklahoma,Midwest City,35.4619,-97.3932,IPv4,1,US,US-OK,Midwest City,MaxMind GeoLite2
162.120.194.157/32,US,United States,Oklahoma,Norman,35.2058,-97.4423,IPv4,1,US,US-OK,Norman,MaxMind GeoLite2
162.120.194.158/32,US,United States,Oklahoma,Oklahoma City,35.4662,-97.5168,IPv4,1,US,US-OK,Oklahoma City,MaxMind GeoLite2
162.120.194.159/32,US,United States,Oklahoma,Tulsa,36.1543,-95.9902,IPv4,1,US,US-OK,Tulsa,MaxMind GeoLite2
162.120.194.160/32,US,United States,South Carolina,Anderson,34.4993,-82.6575,IPv4,1,US,US-SC,Anderson,MaxMind GeoLite2
162.120.194.161/32,US,United States,South Carolina,Charleston,32.7771,-79.9305,IPv4,1,US,US-SC,Charleston,MaxMind GeoLite2
162.120.194.162/32,US,United States,South Carolina,Columbia,34.0007,-81.0348,IPv4,1,US,US-SC,Columbia,MaxMind GeoLite2
162.120.194.163/32,US,United States,South Carolina,Florence,34.1847,-79.7704,IPv4,1,US,US-SC,Florence,MaxMind GeoLite2
162.120.194.164/32,US,United States,South Carolina,Greenville,34.8549,-82.3946,IPv4,1,US,US-SC,Greenville,MaxMind GeoLite2
162.120.194.165/32,US,United States,South Carolina,Lexington,33.9842,-81.2365,IPv4,1,US,US-SC,Lexington,MaxMind GeoLite2
162.120.194.166/32,US,United States,South Carolina,Myrtle Beach,33.6988,-78.916,IPv4,1,US,US-SC,Myrtle Beach,MaxMind GeoLite2
162.120.194.167/32,US,United States,South Carolina,Rock Hill,34.9151,-81.0129,IPv4,1,US,US-SC,Rock Hill,MaxMind GeoLite2
162.120.194.168/32,US,United States,Tennessee,Bristol,36.5933,-82.1873,IPv4,1,US,US-TN,Bristol,MaxMind GeoLite2
162.120.194.169/32,US,United States,Tennessee,Chattanooga,35.0454,-85.3089,IPv4,1,US,US-TN,Chattanooga,MaxMind GeoLite2
162.120.194.170/32,US,United States,Tennessee,Clarksville,36.5314,-87.3583,IPv4,1,US,US-TN,Clarksville,MaxMind GeoLite2
162.120.194.171/32,US,United States,Tennessee,Franklin,35.9251,-86.8689,IPv4,1,US,US-TN,Franklin,MaxMind GeoLite2
162.120.194.172/32,US,United States,Tennessee,Jackson,35.6096,-88.8143,IPv4,1,US,US-TN,Jackson,MaxMind GeoLite2
162.120.194.173/32,US,United States,Tennessee,Johnson City,36.3125,-82.377,IPv4,1,US,US-TN,Johnson City,MaxMind GeoLite2
162.120.194.174/32,US,United States,Tennessee,Lebanon,36.211,-86.2944,IPv4,1,US,US-TN,Lebanon,MaxMind GeoLite2
162.120.194.175/32,US,United States,Tennessee,Maryville,35.7577,-83.9724,IPv4,1,US,US-TN,Maryville,MaxMind GeoLite2
162.120.194.176/32,US,United States,Tennessee,Memphis,35.1499,-90.0558,IPv4,1,US,US-TN,Memphis,MaxMind GeoLite2
162.120.194.177/32,US,United States,Tennessee,Murfreesboro,35.8437,-86.3881,IPv4,1,US,US-TN,Murfreesboro,MaxMind GeoLite2
162.120.194.178/32,US,United States,Tennessee,Nashville,36.1671,-86.7861,IPv4,1,US,US-TN,Nashville,MaxMind GeoLite2
162.120.194.179/32,US,United States,Tennessee,Knoxville,35.9605,-83.9234,IPv4,1,US,US-TN,Knoxville,MaxMind GeoLite2
162.120.194.180/32,US,United States,Tennessee,Sevierville,35.8456,-83.5392,IPv4,1,US,US-TN,Sevierville,MaxMind GeoLite2
162.120.194.181/32,US,United States,Tennessee,Shelbyville,35.4825,-86.4629,IPv4,1,US,US-TN,Shelbyville,MaxMind GeoLite2
162.120.194.182/32,US,United States,Texas,Allen,33.1177,-96.6791,IPv4,1,US,US-TX,Allen,MaxMind GeoLite2
162.120.194.183/32,US,United States,Texas,Arlington,32.7303,-97.1023,IPv4,1,US,US-TX,Arlington,MaxMind GeoLite2
162.120.194.184/32,US,United States,Texas,Atascocita,30.0043,-95.1747,IPv4,1,US,US-TX,Atascocita,MaxMind GeoLite2
162.120.194.185/32,US,United States,Texas,Austin,30.2625,-97.7463,IPv4,1,US,US-TX,Austin,MaxMind GeoLite2
162.120.194.186/32,US,United States,Texas,Bedford,32.8472,-97.1491,IPv4,1,US,US-TX,Bedford,MaxMind GeoLite2
162.120.194.187/32,US,United States,Texas,Carrollton,32.9461,-96.8924,IPv4,1,US,US-TX,Carrollton,MaxMind GeoLite2
162.120.194.188/32,US,United States,Texas,Cedar Park,30.5045,-97.8209,IPv4,1,US,US-TX,Cedar Park,MaxMind GeoLite2
162.120.194.189/32,US,United States,Texas,Conroe,30.3052,-95.4552,IPv4,1,US,US-TX,Conroe,MaxMind GeoLite2
162.120.194.190/32,US,United States,Texas,Corpus Christi,27.8011,-97.3994,IPv4,1,US,US-TX,Corpus Christi,MaxMind GeoLite2
162.120.194.191/32,US,United States,Texas,Cypress,29.9736,-95.6909,IPv4,1,US,US-TX,Cypress,MaxMind GeoLite2
162.120.194.192/32,US,United States,Texas,Dallas,32.7797,-96.8022,IPv4,1,US,US-TX,Dallas,MaxMind GeoLite2
162.120.194.193/32,US,United States,Texas,Denton,33.2205,-97.1294,IPv4,1,US,US-TX,Denton,MaxMind GeoLite2
162.120.194.194/32,US,United States,Texas,DeSoto,32.5884,-96.8599,IPv4,1,US,US-TX,DeSoto,MaxMind GeoLite2
162.120.194.195/32,US,United States,Texas,Fort Worth,32.7254,-97.3208,IPv4,1,US,US-TX,Fort Worth,MaxMind GeoLite2
162.120.194.196/32,US,United States,Texas,Frisco,33.1494,-96.828,IPv4,1,US,US-TX,Frisco,MaxMind GeoLite2
162.120.194.197/32,US,United States,Texas,Garland,32.913,-96.6369,IPv4,1,US,US-TX,Garland,MaxMind GeoLite2
162.120.194.198/32,US,United States,Texas,Grapevine,32.9305,-97.0739,IPv4,1,US,US-TX,Grapevine,MaxMind GeoLite2
162.120.194.199/32,US,United States,Texas,Greenville,33.1047,-96.0927,IPv4,1,US,US-TX,Greenville,MaxMind GeoLite2
162.120.194.200/32,US,United States,Texas,Houston,29.7539,-95.359,IPv4,1,US,US-TX,Houston,MaxMind GeoLite2
162.120.194.201/32,US,United States,Texas,Irving,32.799,-96.956,IPv4,1,US,US-TX,Irving,MaxMind GeoLite2
162.120.194.202/32,US,United States,Texas,Katy,29.7876,-95.8276,IPv4,1,US,US-TX,Katy,MaxMind GeoLite2
162.120.194.203/32,US,United States,Texas,Killeen,31.1138,-97.7283,IPv4,1,US,US-TX,Killeen,MaxMind GeoLite2
162.120.194.204/32,US,United States,Texas,League City,29.5183,-95.0977,IPv4,1,US,US-TX,League City,MaxMind GeoLite2
162.120.194.205/32,US,United States,Texas,Lewisville,33.047,-96.9956,IPv4,1,US,US-TX,Lewisville,MaxMind GeoLite2
162.120.194.206/32,US,United States,Texas,Longview,32.5013,-94.7475,IPv4,1,US,US-TX,Longview,MaxMind GeoLite2
162.120.194.207/32,US,United States,Texas,Lubbock,33.5716,-101.8545,IPv4,1,US,US-TX,Lubbock,MaxMind GeoLite2
162.120.194.208/32,US,United States,Texas,Manor,30.3358,-97.5552,IPv4,1,US,US-TX,Manor,MaxMind GeoLite2
162.120.194.209/32,US,United States,Texas,Mansfield,32.5632,-97.1417,IPv4,1,US,US-TX,Mansfield,MaxMind GeoLite2
162.120.194.210/32,US,United States,Texas,McKinney,33.1976,-96.6178,IPv4,1,US,US-TX,McKinney,MaxMind GeoLite2
162.120.194.211/32,US,United States,Texas,Mesquite,32.7691,-96.6053,IPv4,1,US,US-TX,Mesquite,MaxMind GeoLite2
162.120.194.212/32,US,United States,Texas,Midland,31.9936,-102.0779,IPv4,1,US,US-TX,Midland,MaxMind GeoLite2
162.120.194.213/32,US,United States,Texas,New Braunfels,29.7065,-98.1221,IPv4,1,US,US-TX,New Braunfels,MaxMind GeoLite2
162.120.194.214/32,US,United States,Texas,North Richland Hills,32.8404,-97.2285,IPv4,1,US,US-TX,North Richland Hills,MaxMind GeoLite2
162.120.194.215/32,US,United States,Texas,Pasadena,29.6923,-95.2166,IPv4,1,US,US-TX,Pasadena,MaxMind GeoLite2
162.120.194.216/32,US,United States,Texas,Pearland,29.5656,-95.2747,IPv4,1,US,US-TX,Pearland,MaxMind GeoLite2
162.120.194.217/32,US,United States,Texas,Richardson,32.9473,-96.7028,IPv4,1,US,US-TX,Richardson,MaxMind GeoLite2
162.120.194.218/32,US,United States,Texas,Rosenberg,29.5523,-95.7969,IPv4,1,US,US-TX,Rosenberg,MaxMind GeoLite2
162.120.194.219/32,US,United States,Texas,Round Rock,30.5089,-97.6796,IPv4,1,US,US-TX,Round Rock,MaxMind GeoLite2
162.120.194.220/32,US,United States,Texas,San Marcos,29.8737,-97.9361,IPv4,1,US,US-TX,San Marcos,MaxMind GeoLite2
162.120.194.221/32,US,United States,Texas,Schertz,29.5522,-98.2697,IPv4,1,US,US-TX,Schertz,MaxMind GeoLite2
162.120.194.222/32,US,United States,Texas,Sherman,33.6387,-96.6153,IPv4,1,US,US-TX,Sherman,MaxMind GeoLite2
162.120.194.223/32,US,United States,Texas,Sugar Land,29.6189,-95.633,IPv4,1,US,US-TX,Sugar Land,MaxMind GeoLite2
162.120.194.224/32,US,United States,Texas,Texarkana,33.4216,-94.0518,IPv4,1,US,US-TX,Texarkana,MaxMind GeoLite2
162.120.194.225/32,US,United States,Texas,The Woodlands,30.1603,-95.4876,IPv4,1,US,US-TX,The Woodlands,MaxMind GeoLite2
162.120.194.226/32,US,United States,Texas,Tyler,32.3538,-95.3093,IPv4,1,US,US-TX,Tyler,MaxMind GeoLite2
162.120.194.227/32,US,United States,Texas,Wichita Falls,33.917,-98.4992,IPv4,1,US,US-TX,Wichita Falls,MaxMind GeoLite2
162.120.194.228/32,US,United States,Texas,Wylie,33.0032,-96.5434,IPv4,1,US,US-TX,Wylie,MaxMind GeoLite2
162.120.194.229/32,US,United States,Virginia,Boydton,36.6676,-78.3875,IPv4,1,US,US-VA,Boydton,MaxMind GeoLite2
162.120.194.230/32,US,United States,Virginia,Charlottesville,38.0271,-78.4797,IPv4,1,US,US-VA,Charlottesville,MaxMind GeoLite2
162.120.194.231/32,US,United States,Virginia,Chester,37.3392,-77.4175,IPv4,1,US,US-VA,Chester,MaxMind GeoLite2
162.120.194.232/32,US,United States,Virginia,Fredericksburg,38.2999,-77.465,IPv4,1,US,US-VA,Fredericksburg,MaxMind GeoLite2
162.120.194.233/32,US,United States,Virginia,Roanoke,37.2681,-79.9404,IPv4,1,US,US-VA,Roanoke,MaxMind GeoLite2
162.120.194.234/32,US,United States,Virginia,Sandston,37.5235,-77.3158,IPv4,1,US,US-VA,Sandston,MaxMind GeoLite2
162.120.194.235/32,US,United States,Virginia,Tuckahoe,37.5902,-77.5564,IPv4,1,US,US-VA,Tuckahoe,MaxMind GeoLite2
162.120.194.236/32,AW,Aruba,,,12.5,-69.9667,IPv4,1,AW,,,MaxMind GeoLite2
162.120.194.237/32,BB,Barbados,,,13.1645,-59.5517,IPv4,1,BB,,,MaxMind GeoLite2
162.120.194.238/32,BS,Bahamas,,,25.0408,-77.3712,IPv4,1,BS,,,MaxMind GeoLite2
162.120.194.239/32,CO,Colombia,,,4.5981,-74.0799,IPv4,1,CO,,,MaxMind GeoLite2
162.120.194.240/32,CR,Costa Rica,,,10.0029,-84.0,IPv4,1,CR,,,MaxMind GeoLite2
162.120.194.241/32,CW,Curaçao,,,12.1804,-69.0016,IPv4,1,CW,,,MaxMind GeoLite2
162.120.194.242/32,DO,Dominican Republic,,,19.0,-70.6667,IPv4,1,DO,,,MaxMind GeoLite2
162.120.194.243/32,GT,Guatemala,,,15.4974,-90.2525,IPv4,1,GT,,,MaxMind GeoLite2
162.120.194.244/32,HN,Honduras,,,15.0,-86.5,IPv4,1,HN,,,MaxMind GeoLite2
162.120.194.245/32,NI,Nicaragua,,,12.9982,-84.9967,IPv4,1,NI,,,MaxMind GeoLite2
162.120.194.246/32,SV,El Salvador,,,13.8333,-88.9167,IPv4,1,SV,,,MaxMind GeoLite2
162.120.194.247/32,SX,Sint Maarten,,,18.0393,-63.07,IPv4,1,SX,,,MaxMind GeoLite2
162.120.194.248/32,VI,U.S. Virgin Islands,,,18.3447,-64.9832,IPv4,1,VI,,,MaxMind GeoLite2
162.120.196.0/32,US,United States,,,37.751,-97.822,IPv4,1,US,,,MaxMind GeoLite2
162.120.196.1/32,US,United States,Alabama,Alabaster,33.2443,-86.8164,IPv4,1,US,US-AL,Alabaster,MaxMind GeoLite2
162.120.196.2/32,US,United States,Alabama,Daphne,30.6035,-87.9036,IPv4,1,US,US-AL,Daphne,MaxMind GeoLite2
162.120.196.3/32,US,United States,Alabama,Decatur,34.607,-86.9912,IPv4,1,US,US-AL,Decatur,MaxMind GeoLite2
162.120.196.4/32,US,United States,Alabama,Hoover,33.395,-86.8348,IPv4,1,US,US-AL,Hoover,MaxMind GeoLite2
162.120.196.5/32,US,United States,Alabama,Huntsville,34.7281,-86.5878,IPv4,1,US,US-AL,Huntsville,MaxMind GeoLite2
162.120.196.6/32,US,United States,Alabama,Mobile,30.6922,-88.0425,IPv4,1,US,US-AL,Mobile,MaxMind GeoLite2
162.120.196.7/32,US,United States,Alabama,Tuscaloosa,33.2154,-87.5698,IPv4,1,US,US-AL,Tuscaloosa,MaxMind GeoLite2
162.120.196.8/32,US,United States,Arkansas,Cabot,34.9745,-92.0165,IPv4,1,US,US-AR,Cabot,MaxMind GeoLite2
162.120.196.9/32,US,United States,Arkansas,Conway,35.0848,-92.4242,IPv4,1,US,US-AR,Conway,MaxMind GeoLite2
162.120.196.10/32,US,United States,Arkansas,Fayetteville,36.0613,-94.1523,IPv4,1,US,US-AR,Fayetteville,MaxMind GeoLite2
162.120.196.11/32,US,United States,Arkansas,Fort Smith,35.3879,-94.3996,IPv4,1,US,US-AR,Fort Smith,MaxMind GeoLite2
162.120.196.12/32,US,United States,Arkansas,Jonesboro,35.8363,-90.6999,IPv4,1,US,US-AR,Jonesboro,MaxMind GeoLite2
162.120.196.13/32,US,United States,Arkansas,Little Rock,34.7448,-92.2883,IPv4,1,US,US-AR,Little Rock,MaxMind GeoLite2
162.120.196.14/32,US,United States,Arkansas,Rogers,36.3293,-94.1136,IPv4,1,US,US-AR,Rogers,MaxMind GeoLite2
162.120.196.15/32,US,United States,Colorado,Arvada,39.8034,-105.0954,IPv4,1,US,US-CO,Arvada,MaxMind GeoLite2
162.120.196.16/32,US,United States,Colorado,Aurora,39.7343,-104.8262,IPv4,1,US,US-CO,Aurora,MaxMind GeoLite2
162.120.196.17/32,US,United States,Colorado,Boulder,40.0128,-105.2759,IPv4,1,US,US-CO,Boulder,MaxMind GeoLite2
162.120.196.18/32,US,United States,Colorado,Centennial,39.5792,-104.8769,IPv4,1,US,US-CO,Centennial,MaxMind GeoLite2
162.120.196.19/32,US,United States,Colorado,Colorado Springs,38.8374,-104.8225,IPv4,1,US,US-CO,Colorado Springs,MaxMind GeoLite2
162.120.196.20/32,US,United States,Colorado,Denver,39.7391,-104.9866,IPv4,1,US,US-CO,Denver,MaxMind GeoLite2
162.120.196.21/32,US,United States,Colorado,Evergreen,39.6374,-105.3402,IPv4,1,US,US-CO,Evergreen,MaxMind GeoLite2
162.120.196.22/32,US,United States,Colorado,Grand Junction,39.0761,-108.5451,IPv4,1,US,US-CO,Grand Junction,MaxMind GeoLite2
162.120.196.23/32,US,United States,Colorado,Ken Caryl,39.5727,-105.1112,IPv4,1,US,US-CO,Ken Caryl,MaxMind GeoLite2
162.120.196.24/32,US,United States,Colorado,Thornton,39.8662,-104.9755,IPv4,1,US,US-CO,Thornton,MaxMind GeoLite2
162.120.196.25/32,US,United States,Colorado,Westminster,39.8342,-105.0336,IPv4,1,US,US-CO,Westminster,MaxMind GeoLite2
162.120.196.26/32,US,United States,Florida,Crestview,30.7617,-86.5883,IPv4,1,US,US-FL,Crestview,MaxMind GeoLite2
162.120.196.27/32,US,United States,Florida,Pensacola,30.4199,-87.217,IPv4,1,US,US-FL,Pensacola,MaxMind GeoLite2
162.120.196.28/32,US,United States,Georgia,Acworth,34.0782,-84.6485,IPv4,1,US,US-GA,Acworth,MaxMind GeoLite2
162.120.196.29/32,US,United States,Georgia,Atlanta,33.7485,-84.3871,IPv4,1,US,US-GA,Atlanta,MaxMind GeoLite2
162.120.196.30/32,US,United States,Georgia,Dacula,33.9916,-83.8901,IPv4,1,US,US-GA,Dacula,MaxMind GeoLite2
162.120.196.31/32,US,United States,Georgia,Decatur,33.7747,-84.2961,IPv4,1,US,US-GA,Decatur,MaxMind GeoLite2
162.120.196.32/32,US,United States,Georgia,Douglasville,33.7527,-84.747,IPv4,1,US,US-GA,Douglasville,MaxMind GeoLite2
162.120.196.33/32,US,United States,Georgia,East Point,33.6728,-84.4357,IPv4,1,US,US-GA,East Point,MaxMind GeoLite2
162.120.196.34/32,US,United States,Georgia,Gainesville,34.3089,-83.8249,IPv4,1,US,US-GA,Gainesville,MaxMind GeoLite2
162.120.196.35/32,US,United States,Georgia,Johns Creek,34.026,-84.1999,IPv4,1,US,US-GA,Johns Creek,MaxMind GeoLite2
162.120.196.36/32,US,United States,Georgia,Lawrenceville,33.9482,-83.9944,IPv4,1,US,US-GA,Lawrenceville,MaxMind GeoLite2
162.120.196.37/32,US,United States,Georgia,Macon,32.8438,-83.6266,IPv4,1,US,US-GA,Macon,MaxMind GeoLite2
162.120.196.38/32,US,United States,Georgia,Marietta,33.9521,-84.5475,IPv4,1,US,US-GA,Marietta,MaxMind GeoLite2
162.120.196.39/32,US,United States,Georgia,Riverdale,33.5619,-84.4319,IPv4,1,US,US-GA,Riverdale,MaxMind GeoLite2
162.120.196.40/32,US,United States,Georgia,Roswell,34.017,-84.3573,IPv4,1,US,US-GA,Roswell,MaxMind GeoLite2
162.120.196.41/32,US,United States,Georgia,Sandy Springs,33.9238,-84.3869,IPv4,1,US,US-GA,Sandy Springs,MaxMind GeoLite2
162.120.196.42/32,US,United States,Georgia,Smyrna,33.8775,-84.5017,IPv4,1,US,US-GA,Smyrna,MaxMind GeoLite2
162.120.196.43/32,US,United States,Georgia,Social Circle,33.6562,-83.7182,IPv4,1,US,US-GA,Social Circle,MaxMind GeoLite2
162.120.196.44/32,US,United States,Georgia,South Fulton,33.5954,-84.6581,IPv4,1,US,US-GA,South Fulton,MaxMind GeoLite2
162.120.196.45/32,US,United States,Georgia,Stockbridge,33.5443,-84.2338,IPv4,1,US,US-GA,Stockbridge,MaxMind GeoLite2
162.120.196.46/32,US,United States,Georgia,Tucker,33.8583,-84.2165,IPv4,1,US,US-GA,Tucker,MaxMind GeoLite2
162.120.196.47/32,US,United States,Georgia,Warner Robins,32.6438,-83.6354,IPv4,1,US,US-GA,Warner Robins,MaxMind GeoLite2
162.120.196.48/32,US,United States,Georgia,Woodstock,34.1078,-84.5026,IPv4,1,US,US-GA,Woodstock,MaxMind GeoLite2
162.120.196.49/32,US,United States,Iowa,Ames,42.0373,-93.6005,IPv4,1,US,US-IA,Ames,MaxMind GeoLite2
162.120.196.50/32,US,United States,Iowa,Davenport,41.5171,-90.574,IPv4,1,US,US-IA,Davenport,MaxMind GeoLite2
162.120.196.51/32,US,United States,Iowa,Des Moines,41.6015,-93.6127,IPv4,1,US,US-IA,Des Moines,MaxMind GeoLite2
162.120.196.52/32,US,United States,Iowa,West Des Moines,41.5757,-93.7364,IPv4,1,US,US-IA,West Des Moines,MaxMind GeoLite2
162.120.196.53/32,US,United States,Illinois,Arlington Heights,42.0839,-87.9775,IPv4,1,US,US-IL,Arlington Heights,MaxMind GeoLite2
162.120.196.54/32,US,United States,Illinois,Aurora,41.7572,-88.3177,IPv4,1,US,US-IL,Aurora,MaxMind GeoLite2
162.120.196.55/32,US,United States,Illinois,Belleville,38.5136,-89.9842,IPv4,1,US,US-IL,Belleville,MaxMind GeoLite2
162.120.196.56/32,US,United States,Illinois,Bridgeview,41.7431,-87.8066,IPv4,1,US,US-IL,Bridgeview,MaxMind GeoLite2
162.120.196.57/32,US,United States,Illinois,Champaign,40.1171,-88.2482,IPv4,1,US,US-IL,Champaign,MaxMind GeoLite2
162.120.196.58/32,US,United States,Illinois,Chicago,41.8835,-87.6305,IPv4,1,US,US-IL,Chicago,MaxMind GeoLite2
162.120.196.59/32,US,United States,Illinois,Cicero,41.8395,-87.7555,IPv4,1,US,US-IL,Cicero,MaxMind GeoLite2
162.120.196.60/32,US,United States,Illinois,Darien,41.7448,-87.9819,IPv4,1,US,US-IL,Darien,MaxMind GeoLite2
162.120.196.61/32,US,United States,Illinois,Des Plaines,42.0348,-87.8812,IPv4,1,US,US-IL,Des Plaines,MaxMind GeoLite2
162.120.196.62/32,US,United States,Illinois,Downers Grove,41.7996,-88.0066,IPv4,1,US,US-IL,Downers Grove,MaxMind GeoLite2
162.120.196.63/32,US,United States,Illinois,Elgin,42.0348,-88.2842,IPv4,1,US,US-IL,Elgin,MaxMind GeoLite2
162.120.196.64/32,US,United States,Illinois,Elmhurst,41.8957,-87.9435,IPv4,1,US,US-IL,Elmhurst,MaxMind GeoLite2
162.120.196.65/32,US,United States,Illinois,Evanston,42.0397,-87.687,IPv4,1,US,US-IL,Evanston,MaxMind GeoLite2
162.120.196.66/32,US,United States,Illinois,Franklin Park,41.935,-87.8737,IPv4,1,US,US-IL,Franklin Park,MaxMind GeoLite2
162.120.196.67/32,US,United States,Illinois,Glenview,38.5844,-89.9349,IPv4,1,US,US-IL,Glenview,MaxMind GeoLite2
162.120.196.68/32,US,United States,Illinois,Joliet,41.5259,-88.0865,IPv4,1,US,US-IL,Joliet,MaxMind GeoLite2
162.120.196.69/32,US,United States,Illinois,La Grange,41.8019,-87.8575,IPv4,1,US,US-IL,La Grange,MaxMind GeoLite2
162.120.196.70/32,US,United States,Illinois,Melrose Park,41.9055,-87.8537,IPv4,1,US,US-IL,Melrose Park,MaxMind GeoLite2
162.120.196.71/32,US,United States,Illinois,Naperville,41.7803,-88.1484,IPv4,1,US,US-IL,Naperville,MaxMind GeoLite2
162.120.196.72/32,US,United States,Illinois,Oak Lawn,41.7124,-87.7478,IPv4,1,US,US-IL,Oak Lawn,MaxMind GeoLite2
162.120.196.73/32,US,United States,Illinois,Orland Park,41.6172,-87.8419,IPv4,1,US,US-IL,Orland Park,MaxMind GeoLite2
162.120.196.74/32,US,United States,Illinois,Palatine,42.112,-88.0353,IPv4,1,US,US-IL,Palatine,MaxMind GeoLite2
162.120.196.75/32,US,United States,Illinois,Peoria,40.6887,-89.5857,IPv4,1,US,US-IL,Peoria,MaxMind GeoLite2
162.120.196.76/32,US,United States,Illinois,Quincy,39.9326,-91.4093,IPv4,1,US,US-IL,Quincy,MaxMind GeoLite2
162.120.196.77/32,US,United States,Illinois,Rockford,42.2672,-89.095,IPv4,1,US,US-IL,Rockford,MaxMind GeoLite2
162.120.196.78/32,US,United States,Illinois,Round Lake Beach,42.3667,-88.0925,IPv4,1,US,US-IL,Round Lake Beach,MaxMind GeoLite2
162.120.196.79/32,US,United States,Illinois,Schaumburg,42.0317,-88.0833,IPv4,1,US,US-IL,Schaumburg,MaxMind GeoLite2
162.120.196.80/32,US,United States,Illinois,South Holland,41.5946,-87.5942,IPv4,1,US,US-IL,South Holland,MaxMind GeoLite2
162.120.196.81/32,US,United States,Illinois,Springfield,39.8032,-89.6485,IPv4,1,US,US-IL,Springfield,MaxMind GeoLite2
162.120.196.82/32,US,United States,Illinois,Waukegan,42.3588,-87.8371,IPv4,1,US,US-IL,Waukegan,MaxMind GeoLite2
162.120.196.83/32,US,United States,Illinois,West Chicago,41.8812,-88.2059,IPv4,1,US,US-IL,West Chicago,MaxMind GeoLite2
162.120.196.84/32,US,United States,Indiana,Fishers,39.9549,-86.0184,IPv4,1,US,US-IN,Fishers,MaxMind GeoLite2
162.120.196.85/32,US,United States,Indiana,Fort Wayne,41.151,-85.1247,IPv4,1,US,US-IN,Fort Wayne,MaxMind GeoLite2
162.120.196.86/32,US,United States,Indiana,Gary,41.5993,-87.3334,IPv4,1,US,US-IN,Gary,MaxMind GeoLite2
162.120.196.87/32,US,United States,Indiana,Greenwood,39.5992,-86.13,IPv4,1,US,US-IN,Greenwood,MaxMind GeoLite2
162.120.196.88/32,US,United States,Indiana,Hammond,41.5873,-87.5103,IPv4,1,US,US-IN,Hammond,MaxMind GeoLite2
162.120.196.89/32,US,United States,Indiana,Indianapolis,39.7684,-86.158,IPv4,1,US,US-IN,Indianapolis,MaxMind GeoLite2
162.120.196.90/32,US,United States,Indiana,Knox,41.2959,-86.625,IPv4,1,US,US-IN,Knox,MaxMind GeoLite2
162.120.196.91/32,US,United States,Indiana,Noblesville,40.0565,-86.0159,IPv4,1,US,US-IN,Noblesville,MaxMind GeoLite2
162.120.196.92/32,US,United States,Indiana,South Bend,41.6844,-86.2466,IPv4,1,US,US-IN,South Bend,MaxMind GeoLite2
162.120.196.93/32,US,United States,Indiana,Valparaiso,41.4706,-87.0783,IPv4,1,US,US-IN,Valparaiso,MaxMind GeoLite2
162.120.196.94/32,US,United States,Indiana,Winamac,41.0514,-86.6031,IPv4,1,US,US-IN,Winamac,MaxMind GeoLite2
162.120.196.95/32,US,United States,Kansas,Dearing,37.0571,-95.7174,IPv4,1,US,US-KS,Dearing,MaxMind GeoLite2
162.120.196.96/32,US,United States,Kansas,Kansas City,39.1139,-94.6254,IPv4,1,US,US-KS,Kansas City,MaxMind GeoLite2
162.120.196.97/32,US,United States,Kansas,Olathe,38.8868,-94.8223,IPv4,1,US,US-KS,Olathe,MaxMind GeoLite2
162.120.196.98/32,US,United States,Kansas,Overland Park,38.9944,-94.6733,IPv4,1,US,US-KS,Overland Park,MaxMind GeoLite2
162.120.196.99/32,US,United States,Kansas,Topeka,39.0442,-95.6822,IPv4,1,US,US-KS,Topeka,MaxMind GeoLite2
162.120.196.100/32,US,United States,Kansas,Wichita,37.6901,-97.3404,IPv4,1,US,US-KS,Wichita,MaxMind GeoLite2
162.120.196.101/32,US,United States,Louisiana,Baton Rouge,30.4488,-91.1837,IPv4,1,US,US-LA,Baton Rouge,MaxMind GeoLite2
162.120.196.102/32,US,United States,Louisiana,Central,30.5595,-91.0391,IPv4,1,US,US-LA,Central,MaxMind GeoLite2
162.120.196.103/32,US,United States,Louisiana,Lafayette,30.2225,-92.0247,IPv4,1,US,US-LA,Lafayette,MaxMind GeoLite2
162.120.196.104/32,US,United States,Louisiana,Metairie,29.9828,-90.156,IPv4,1,US,US-LA,Metairie,MaxMind GeoLite2
162.120.196.105/32,US,United States,Louisiana,Monroe,32.505,-92.1239,IPv4,1,US,US-LA,Monroe,MaxMind GeoLite2
162.120.196.106/32,US,United States,Louisiana,New Orleans,29.953,-90.0764,IPv4,1,US,US-LA,New Orleans,MaxMind GeoLite2
162.120.196.107/32,US,United States,Louisiana,Shreveport,32.5275,-93.7492,IPv4,1,US,US-LA,Shreveport,MaxMind GeoLite2
162.120.196.108/32,US,United States,Louisiana,Slidell,30.2761,-89.7852,IPv4,1,US,US-LA,Slidell,MaxMind GeoLite2
162.120.196.109/32,US,United States,Michigan,Clinton Township,42.588,-82.9223,IPv4,1,US,US-MI,Clinton Township,MaxMind GeoLite2
162.120.196.110/32,US,United States,Michigan,Grand Rapids,42.9638,-85.6665,IPv4,1,US,US-MI,Grand Rapids,MaxMind GeoLite2
162.120.196.111/32,US,United States,Michigan,Holland,42.7917,-86.1177,IPv4,1,US,US-MI,Holland,MaxMind GeoLite2
162.120.196.112/32,US,United States,Michigan,Kalamazoo,42.2902,-85.5864,IPv4,1,US,US-MI,Kalamazoo,MaxMind GeoLite2
162.120.196.113/32,US,United States,Michigan,Lansing,42.7293,-84.5548,IPv4,1,US,US-MI,Lansing,MaxMind GeoLite2
162.120.196.114/32,US,United States,Michigan,Niles,41.8229,-86.2566,IPv4,1,US,US-MI,Niles,MaxMind GeoLite2
162.120.196.115/32,US,United States,Michigan,Sterling Heights,42.5787,-83.0327,IPv4,1,US,US-MI,Sterling Heights,MaxMind GeoLite2
162.120.196.116/32,US,United States,Michigan,Ann Arbor,42.2804,-83.7325,IPv4,1,US,US-MI,Ann Arbor,MaxMind GeoLite2
162.120.196.117/32,US,United States,Michigan,Troy,42.6013,-83.178,IPv4,1,US,US-MI,Troy,MaxMind GeoLite2
162.120.196.118/32,US,United States,Michigan,Waterford Township,42.4734,-83.2212,IPv4,1,US,US-MI,Waterford Township,MaxMind GeoLite2
162.120.196.119/32,US,United States,Michigan,Wyoming,42.9178,-85.6995,IPv4,1,US,US-MI,Wyoming,MaxMind GeoLite2
162.120.196.120/32,US,United States,Minnesota,Rochester,44.0148,-92.4636,IPv4,1,US,US-MN,Rochester,MaxMind GeoLite2
162.120.196.121/32,US,United States,Missouri,Arnold,38.4321,-90.3896,IPv4,1,US,US-MO,Arnold,MaxMind GeoLite2
162.120.196.122/32,US,United States,Missouri,Cape Girardeau,37.3022,-89.5161,IPv4,1,US,US-MO,Cape Girardeau,MaxMind GeoLite2
162.120.196.123/32,US,United States,Missouri,Chesterfield,38.6646,-90.5758,IPv4,1,US,US-MO,Chesterfield,MaxMind GeoLite2
162.120.196.124/32,US,United States,Missouri,Columbia,38.9489,-92.3371,IPv4,1,US,US-MO,Columbia,MaxMind GeoLite2
162.120.196.125/32,US,United States,Missouri,Florissant,38.8025,-90.3448,IPv4,1,US,US-MO,Florissant,MaxMind GeoLite2
162.120.196.126/32,US,United States,Missouri,Independence,39.0932,-94.4109,IPv4,1,US,US-MO,Independence,MaxMind GeoLite2
162.120.196.127/32,US,United States,Missouri,Jefferson City,38.5771,-92.1761,IPv4,1,US,US-MO,Jefferson City,MaxMind GeoLite2
162.120.196.128/32,US,United States,Missouri,Joplin,37.0885,-94.5069,IPv4,1,US,US-MO,Joplin,MaxMind GeoLite2
162.120.196.129/32,US,United States,Missouri,Kansas City,39.1027,-94.5778,IPv4,1,US,US-MO,Kansas City,MaxMind GeoLite2
162.120.196.130/32,US,United States,Missouri,Kirkwood,38.5793,-90.422,IPv4,1,US,US-MO,Kirkwood,MaxMind GeoLite2
162.120.196.131/32,US,United States,Missouri,Lee's Summit,38.9201,-94.3999,IPv4,1,US,US-MO,Lee's Summit,MaxMind GeoLite2
162.120.196.132/32,US,United States,Missouri,Nixa,37.0504,-93.3002,IPv4,1,US,US-MO,Nixa,MaxMind GeoLite2
162.120.196.133/32,US,United States,Missouri,Oakville,38.4701,-90.3046,IPv4,1,US,US-MO,Oakville,MaxMind GeoLite2
162.120.196.134/32,US,United States,Missouri,O'Fallon,38.8238,-90.7432,IPv4,1,US,US-MO,O'Fallon,MaxMind GeoLite2
162.120.196.135/32,US,United States,Missouri,Saint Charles,38.7824,-90.4776,IPv4,1,US,US-MO,Saint Charles,MaxMind GeoLite2
162.120.196.136/32,US,United States,Missouri,Springfield,37.2117,-93.299,IPv4,1,US,US-MO,Springfield,MaxMind GeoLite2
162.120.196.137/32,US,United States,Missouri,St Louis,38.6287,-90.1988,IPv4,1,US,US-MO,St. Louis,MaxMind GeoLite2
162.120.196.138/32,US,United States,Missouri,Wildwood,38.5883,-90.6589,IPv4,1,US,US-MO,Wildwood,MaxMind GeoLite2
162.120.196.139/32,US,United States,Mississippi,Biloxi,30.3925,-88.8803,IPv4,1,US,US-MS,Biloxi,MaxMind GeoLite2
162.120.196.140/32,US,United States,Mississippi,Hattiesburg,31.308,-89.3064,IPv4,1,US,US-MS,Hattiesburg,MaxMind GeoLite2
162.120.196.141/32,US,United States,Mississippi,Jackson,32.3012,-90.1834,IPv4,1,US,US-MS,Jackson,MaxMind GeoLite2
162.120.196.142/32,US,United States,Mississippi,Oxford,34.3625,-89.5273,IPv4,1,US,US-MS,Oxford,MaxMind GeoLite2
162.120.196.143/32,US,United States,Mississippi,Tupelo,34.2515,-88.7208,IPv4,1,US,US-MS,Tupelo,MaxMind GeoLite2
162.120.196.144/32,US,United States,Nebraska,Lincoln,40.8035,-96.651,IPv4,1,US,US-NE,Lincoln,MaxMind GeoLite2
162.120.196.145/32,US,United States,Nebraska,Omaha,41.2612,-95.9354,IPv4,1,US,US-NE,Omaha,MaxMind GeoLite2
162.120.196.146/32,US,United States,Nebraska,Springfield,41.0765,-96.1438,IPv4,1,US,US-NE,Springfield,MaxMind GeoLite2
162.120.196.147/32,US,United States,New Mexico,Albuquerque,35.0781,-106.6583,IPv4,1,US,US-NM,Albuquerque,MaxMind GeoLite2
162.120.196.148/32,US,United States,Ohio,Toledo,41.6692,-83.5519,IPv4,1,US,US-OH,Toledo,MaxMind GeoLite2
162.120.196.149/32,US,United States,Oklahoma,Broken Arrow,36.0523,-95.7803,IPv4,1,US,US-OK,Broken Arrow,MaxMind GeoLite2
162.120.196.150/32,US,United States,Oklahoma,Midwest City,35.4619,-97.3932,IPv4,1,US,US-OK,Midwest City,MaxMind GeoLite2
162.120.196.151/32,US,United States,Oklahoma,Norman,35.2058,-97.4423,IPv4,1,US,US-OK,Norman,MaxMind GeoLite2
162.120.196.152/32,US,United States,Oklahoma,Oklahoma City,35.4662,-97.5168,IPv4,1,US,US-OK,Oklahoma City,MaxMind GeoLite2
162.120.196.153/32,US,United States,Oklahoma,Tulsa,36.1543,-95.9902,IPv4,1,US,US-OK,Tulsa,MaxMind GeoLite2
162.120.196.154/32,US,United States,Tennessee,Franklin,35.9251,-86.8689,IPv4,1,US,US-TN,Franklin,MaxMind GeoLite2
162.120.196.155/32,US,United States,Tennessee,Jackson,35.6096,-88.8143,IPv4,1,US,US-TN,Jackson,MaxMind GeoLite2
162.120.196.156/32,US,United States,Tennessee,Lebanon,36.211,-86.2944,IPv4,1,US,US-TN,Lebanon,MaxMind GeoLite2
162.120.196.157/32,US,United States,Tennessee,Maryville,35.7577,-83.9724,IPv4,1,US,US-TN,Maryville,MaxMind GeoLite2
162.120.196.158/32,US,United States,Tennessee,Memphis,35.1499,-90.0558,IPv4,1,US,US-TN,Memphis,MaxMind GeoLite2
162.120.196.159/32,US,United States,Tennessee,Murfreesboro,35.8437,-86.3881,IPv4,1,US,US-TN,Murfreesboro,MaxMind GeoLite2
162.120.196.160/32,US,United States,Tennessee,Nashville,36.1671,-86.7861,IPv4,1,US,US-TN,Nashville,MaxMind GeoLite2
162.120.196.161/32,US,United States,Tennessee,Knoxville,35.9605,-83.9234,IPv4,1,US,US-TN,Knoxville,MaxMind GeoLite2
162.120.196.162/32,US,United States,Tennessee,Sevierville,35.8456,-83.5392,IPv4,1,US,US-TN,Sevierville,MaxMind GeoLite2
162.120.196.163/32,US,United States,Tennessee,Shelbyville,35.4825,-86.4629,IPv4,1,US,US-TN,Shelbyville,MaxMind GeoLite2
162.120.196.164/32,US,United States,Texas,Abilene,32.4492,-99.7337,IPv4,1,US,US-TX,Abilene,MaxMind GeoLite2
162.120.196.165/32,US,United States,Texas,Allen,33.1177,-96.6791,IPv4,1,US,US-TX,Allen,MaxMind GeoLite2
162.120.196.166/32,US,United States,Texas,Arlington,32.7303,-97.1023,IPv4,1,US,US-TX,Arlington,MaxMind GeoLite2
162.120.196.167/32,US,United States,Texas,Atascocita,30.0043,-95.1747,IPv4,1,US,US-TX,Atascocita,MaxMind GeoLite2
162.120.196.168/32,US,United States,Texas,Austin,30.2625,-97.7463,IPv4,1,US,US-TX,Austin,MaxMind GeoLite2
162.120.196.169/32,US,United States,Texas,Beaumont,30.082,-94.1028,IPv4,1,US,US-TX,Beaumont,MaxMind GeoLite2
162.120.196.170/32,US,United States,Texas,Bedford,32.8472,-97.1491,IPv4,1,US,US-TX,Bedford,MaxMind GeoLite2
162.120.196.171/32,US,United States,Texas,Brownsville,25.8989,-97.4987,IPv4,1,US,US-TX,Brownsville,MaxMind GeoLite2
162.120.196.172/32,US,United States,Texas,Carrollton,32.9461,-96.8924,IPv4,1,US,US-TX,Carrollton,MaxMind GeoLite2
162.120.196.173/32,US,United States,Texas,Cedar Park,30.5045,-97.8209,IPv4,1,US,US-TX,Cedar Park,MaxMind GeoLite2
162.120.196.174/32,US,United States,Texas,Conroe,30.3052,-95.4552,IPv4,1,US,US-TX,Conroe,MaxMind GeoLite2
162.120.196.175/32,US,United States,Texas,Corpus Christi,27.8011,-97.3994,IPv4,1,US,US-TX,Corpus Christi,MaxMind GeoLite2
162.120.196.176/32,US,United States,Texas,Cypress,29.9736,-95.6909,IPv4,1,US,US-TX,Cypress,MaxMind GeoLite2
162.120.196.177/32,US,United States,Texas,Dallas,32.7797,-96.8022,IPv4,1,US,US-TX,Dallas,MaxMind GeoLite2
162.120.196.178/32,US,United States,Texas,Denton,33.2205,-97.1294,IPv4,1,US,US-TX,Denton,MaxMind GeoLite2
162.120.196.179/32,US,United States,Texas,DeSoto,32.5884,-96.8599,IPv4,1,US,US-TX,DeSoto,MaxMind GeoLite2
162.120.196.180/32,US,United States,Texas,El Paso,31.7596,-106.4884,IPv4,1,US,US-TX,El Paso,MaxMind GeoLite2
162.120.196.181/32,US,United States,Texas,Fort Worth,32.7254,-97.3208,IPv4,1,US,US-TX,Fort Worth,MaxMind GeoLite2
162.120.196.182/32,US,United States,Texas,Frisco,33.1494,-96.828,IPv4,1,US,US-TX,Frisco,MaxMind GeoLite2
162.120.196.183/32,US,United States,Texas,Garland,32.913,-96.6369,IPv4,1,US,US-TX,Garland,MaxMind GeoLite2
162.120.196.184/32,US,United States,Texas,Grapevine,32.9305,-97.0739,IPv4,1,US,US-TX,Grapevine,MaxMind GeoLite2
162.120.196.185/32,US,United States,Texas,Greenville,33.1047,-96.0927,IPv4,1,US,US-TX,Greenville,MaxMind GeoLite2
162.120.196.186/32,US,United States,Texas,Houston,29.7539,-95.359,IPv4,1,US,US-TX,Houston,MaxMind GeoLite2
162.120.196.187/32,US,United States,Texas,Irving,32.799,-96.956,IPv4,1,US,US-TX,Irving,MaxMind GeoLite2
162.120.196.188/32,US,United States,Texas,Katy,29.7876,-95.8276,IPv4,1,US,US-TX,Katy,MaxMind GeoLite2
162.120.196.189/32,US,United States,Texas,Killeen,31.1138,-97.7283,IPv4,1,US,US-TX,Killeen,MaxMind GeoLite2
162.120.196.190/32,US,United States,Texas,Laredo,27.5153,-99.4978,IPv4,1,US,US-TX,Laredo,MaxMind GeoLite2
162.120.196.191/32,US,United States,Texas,League City,29.5183,-95.0977,IPv4,1,US,US-TX,League City,MaxMind GeoLite2
162.120.196.192/32,US,United States,Texas,Lewisville,33.047,-96.9956,IPv4,1,US,US-TX,Lewisville,MaxMind GeoLite2
162.120.196.193/32,US,United States,Texas,Longview,32.5013,-94.7475,IPv4,1,US,US-TX,Longview,MaxMind GeoLite2
162.120.196.194/32,US,United States,Texas,Lubbock,33.5716,-101.8545,IPv4,1,US,US-TX,Lubbock,MaxMind GeoLite2
162.120.196.195/32,US,United States,Texas,Manor,30.3358,-97.5552,IPv4,1,US,US-TX,Manor,MaxMind GeoLite2
162.120.196.196/32,US,United States,Texas,Mansfield,32.5632,-97.1417,IPv4,1,US,US-TX,Mansfield,MaxMind GeoLite2
162.120.196.197/32,US,United States,Texas,McKinney,33.1976,-96.6178,IPv4,1,US,US-TX,McKinney,MaxMind GeoLite2
162.120.196.198/32,US,United States,Texas,Mesquite,32.7691,-96.6053,IPv4,1,US,US-TX,Mesquite,MaxMind GeoLite2
162.120.196.199/32,US,United States,Texas,Midland,31.9936,-102.0779,IPv4,1,US,US-TX,Midland,MaxMind GeoLite2
162.120.196.200/32,US,United States,Texas,New Braunfels,29.7065,-98.1221,IPv4,1,US,US-TX,New Braunfels,MaxMind GeoLite2
162.120.196.201/32,US,United States,Texas,North Richland Hills,32.8404,-97.2285,IPv4,1,US,US-TX,North Richland Hills,MaxMind GeoLite2
162.120.196.202/32,US,United States,Texas,Pasadena,29.6923,-95.2166,IPv4,1,US,US-TX,Pasadena,MaxMind GeoLite2
162.120.196.203/32,US,United States,Texas,Pearland,29.5656,-95.2747,IPv4,1,US,US-TX,Pearland,MaxMind GeoLite2
162.120.196.204/32,US,United States,Texas,Richardson,32.9473,-96.7028,IPv4,1,US,US-TX,Richardson,MaxMind GeoLite2
162.120.196.205/32,US,United States,Texas,Rosenberg,29.5523,-95.7969,IPv4,1,US,US-TX,Rosenberg,MaxMind GeoLite2
162.120.196.206/32,US,United States,Texas,Round Rock,30.5089,-97.6796,IPv4,1,US,US-TX,Round Rock,MaxMind GeoLite2
162.120.196.207/32,US,United States,Texas,San Antonio,29.4227,-98.4927,IPv4,1,US,US-TX,San Antonio,MaxMind GeoLite2
162.120.196.208/32,US,United States,Texas,San Marcos,29.8737,-97.9361,IPv4,1,US,US-TX,San Marcos,MaxMind GeoLite2
162.120.196.209/32,US,United States,Texas,Schertz,29.5522,-98.2697,IPv4,1,US,US-TX,Schertz,MaxMind GeoLite2
162.120.196.210/32,US,United States,Texas,Sherman,33.6387,-96.6153,IPv4,1,US,US-TX,Sherman,MaxMind GeoLite2
162.120.196.211/32,US,United States,Texas,Sugar Land,29.6189,-95.633,IPv4,1,US,US-TX,Sugar Land,MaxMind GeoLite2
162.120.196.212/32,US,United States,Texas,Texarkana,33.4216,-94.0518,IPv4,1,US,US-TX,Texarkana,MaxMind GeoLite2
162.120.196.213/32,US,United States,Texas,The Woodlands,30.1603,-95.4876,IPv4,1,US,US-TX,The Woodlands,MaxMind GeoLite2
162.120.196.214/32,US,United States,Texas,Tyler,32.3538,-95.3093,IPv4,1,US,US-TX,Tyler,MaxMind GeoLite2
162.120.196.215/32,US,United States,Texas,Waco,31.553,-97.1421,IPv4,1,US,US-TX,Waco,MaxMind GeoLite2
162.120.196.216/32,US,United States,Texas,Waxahachie,32.3816,-96.8322,IPv4,1,US,US-TX,Waxahachie,MaxMind GeoLite2
162.120.196.217/32,US,United States,Texas,Wichita Falls,33.917,-98.4992,IPv4,1,US,US-TX,Wichita Falls,MaxMind GeoLite2
162.120.196.218/32,US,United States,Texas,Wylie,33.0032,-96.5434,IPv4,1,US,US-TX,Wylie,MaxMind GeoLite2
162.120.196.219/32,US,United States,Wisconsin,Appleton,44.2682,-88.4265,IPv4,1,US,US-WI,Appleton,MaxMind GeoLite2
162.120.196.220/32,US,United States,Wisconsin,Eau Claire,44.8093,-91.5013,IPv4,1,US,US-WI,Eau Claire,MaxMind GeoLite2
162.120.196.221/32,US,United States,Wisconsin,Green Bay,44.517,-88.0176,IPv4,1,US,US-WI,Green Bay,MaxMind GeoLite2
162.120.196.222/32,US,United States,Wisconsin,Janesville,42.6713,-89.007,IPv4,1,US,US-WI,Janesville,MaxMind GeoLite2
162.120.196.223/32,US,United States,Wisconsin,Kenosha,42.588,-87.8181,IPv4,1,US,US-WI,Kenosha,MaxMind GeoLite2
162.120.196.224/32,US,United States,Wisconsin,La Crosse,43.8013,-91.2134,IPv4,1,US,US-WI,La Crosse,MaxMind GeoLite2
162.120.196.225/32,US,United States,Wisconsin,Madison,43.0782,-89.4075,IPv4,1,US,US-WI,Madison,MaxMind GeoLite2
162.120.196.226/32,US,United States,Wisconsin,Milwaukee,43.0382,-87.91,IPv4,1,US,US-WI,Milwaukee,MaxMind GeoLite2
162.120.196.227/32,US,United States,Wisconsin,Sheboygan,43.7409,-87.7298,IPv4,1,US,US-WI,Sheboygan,MaxMind GeoLite2
162.120.196.228/32,US,United States,Wisconsin,Sun Prairie,43.1899,-89.2185,IPv4,1,US,US-WI,Sun Prairie,MaxMind GeoLite2
162.120.196.229/32,US,United States,Wisconsin,Waukesha,43.0164,-88.2271,IPv4,1,US,US-WI,Waukesha,MaxMind GeoLite2
162.120.196.230/32,US,United States,Wisconsin,Wausau,44.9656,-89.7066,IPv4,1,US,US-WI,Wausau,MaxMind GeoLite2
162.120.196.231/32,US,United States,Wisconsin,West Allis,43.0184,-88.0157,IPv4,1,US,US-WI,West Allis,MaxMind GeoLite2
162.120.196.232/32,AI,Anguilla,,,18.2167,-63.05,IPv4,1,AI,,,MaxMind GeoLite2
162.120.196.233/32,BQ,"Bonaire, Sint Eustatius, and Saba",,,12.2146,-68.2907,IPv4,1,BQ,,,MaxMind GeoLite2
162.120.196.234/32,BZ,Belize,,,17.2528,-88.7465,IPv4,1,BZ,,,MaxMind GeoLite2
162.120.196.235/32,KY,Cayman Islands,,,19.5,-80.6667,IPv4,1,KY,,,MaxMind GeoLite2
162.120.196.236/32,MX,Mexico,,,19.4371,-99.0111,IPv4,1,MX,,,MaxMind GeoLite2
162.120.196.237/32,MX,Mexico,Aguascalientes,Aguascalientes,21.8815,-102.2924,IPv4,1,MX,MX-AGU,Aguascalientes,MaxMind GeoLite2
162.120.196.238/32,MX,Mexico,Chihuahua,Ciudad Juárez,31.7203,-106.4681,IPv4,1,MX,MX-CHH,Ciudad Juarez,MaxMind GeoLite2
162.120.196.239/32,MX,Mexico,Chihuahua,Chihuahua City,28.9275,-106.4313,IPv4,1,MX,MX-CHH,Chihuahua,MaxMind GeoLite2
162.120.196.240/32,MX,Mexico,Chiapas,Tuxtla Gutierrez,16.759,-93.1112,IPv4,1,MX,MX-CHP,Tuxtla Gutierrez,MaxMind GeoLite2
162.120.196.241/32,MX,Mexico,Mexico City,Mexico City,19.4324,-99.1229,IPv4,1,MX,MX-CMX,Mexico City,MaxMind GeoLite2
162.120.196.242/32,MX,Mexico,Mexico City,San Miguel Ajusco,19.2234,-99.2018,IPv4,1,MX,MX-CMX,San Miguel Ajusco,MaxMind GeoLite2
162.120.196.243/32,MX,Mexico,Coahuila,Monclova,26.9095,-101.4144,IPv4,1,MX,MX-COA,Monclova,MaxMind GeoLite2
162.120.196.244/32,MX,Mexico,Coahuila,Saltillo,25.426,-100.9796,IPv4,1,MX,MX-COA,Saltillo,MaxMind GeoLite2
162.120.196.245/32,MX,Mexico,Coahuila,Torreón,25.546,-103.417,IPv4,1,MX,MX-COA,Torreon,MaxMind GeoLite2
162.120.196.246/32,MX,Mexico,Colima,Colima,19.2409,-103.7127,IPv4,1,MX,MX-COL,Colima,MaxMind GeoLite2
162.120.196.247/32,MX,Mexico,Durango,Durango,24.0199,-104.6573,IPv4,1,MX,MX-DUR,Durango,MaxMind GeoLite2
162.120.196.248/32,MX,Mexico,Guerrero,Acapulco de Juárez,16.8462,-99.9181,IPv4,1,MX,MX-GRO,Acapulco,MaxMind GeoLite2
162.120.196.249/32,MX,Mexico,Guanajuato,Celaya,20.5218,-100.814,IPv4,1,MX,MX-GUA,Celaya,MaxMind GeoLite2
162.120.196.250/32,MX,Mexico,Guanajuato,Irapuato,20.6748,-101.3611,IPv4,1,MX,MX-GUA,Irapuato,MaxMind GeoLite2
162.120.196.251/32,MX,Mexico,Guanajuato,Leon,21.1275,-101.6758,IPv4,1,MX,MX-GUA,Leon,MaxMind GeoLite2
162.120.196.252/32,MX,Mexico,Guanajuato,Salamanca,20.565,-101.1924,IPv4,1,MX,MX-GUA,Salamanca,MaxMind GeoLite2
162.120.196.253/32,MX,Mexico,Hidalgo,Pachuca,20.1173,-98.7309,IPv4,1,MX,MX-HID,Pachuca,MaxMind GeoLite2
162.120.196.254/32,MX,Mexico,Hidalgo,Tizayuca,19.8296,-98.979,IPv4,1,MX,MX-HID,Tizayuca,MaxMind GeoLite2
162.120.196.255/32,MX,Mexico,Hidalgo,Tula de Allende,20.0498,-99.3377,IPv4,1,MX,MX-HID,Tula,MaxMind GeoLite2
162.120.197.0/32,MX,Mexico,Hidalgo,Tulancingo,20.0807,-98.3692,IPv4,1,MX,MX-HID,Tulancingo,MaxMind GeoLite2
162.120.197.1/32,MX,Mexico,Jalisco,Guadalajara,20.6762,-103.3469,IPv4,1,MX,MX-JAL,Guadalajara,MaxMind GeoLite2
